{"avg_age":13,"schoolNum":960,"formNum":34,"last_synced":1776247381149,"statistics":[{"province":"Henan","count":235},{"province":"Hunan","count":131},{"province":"Chongqing","count":126},{"province":"Shandong","count":121},{"province":"Guangdong","count":73},{"province":"Guangxi","count":63},{"province":"Guizhou","count":63},{"province":"Hubei","count":53},{"province":"Sichuan","count":49},{"province":"Jilin","count":19},{"province":"Liaoning","count":13},{"province":"Heilongjiang","count":9},{"province":"Anhui","count":1},{"province":"Shanxi","count":1},{"province":"Jiangsu","count":1},{"province":"Zhejiang","count":1},{"province":"Fujian","count":1}],"statisticsForm":[{"province":"Guangxi","count":7},{"province":"Chongqing","count":6},{"province":"Henan","count":3},{"province":"Sichuan","count":2},{"province":"Shandong","count":2},{"province":"Liaoning","count":2},{"province":"Anhui","count":1},{"province":"Shanxi","count":1},{"province":"Guangdong","count":1},{"province":"Jiangsu","count":1},{"province":"Zhejiang","count":1},{"province":"Hubei","count":1},{"province":"Fujian","count":1},{"province":"Guizhou","count":1}],"data":[{"name":"ShandongXinZhongZiEducation Consulting Co., Ltd.","addr":"ShandongWeiFangQingZhou City Flower and Seedling Trading Center East 500Mi Road North","province":"Shandong","prov":"WeiFang City QingZhou City","city":"","county":"","else":"","lat":36.62728,"lng":118.58882,"experience":"","HMaster":"CaoYongWang","scandal":"A coach reportedly sexually assaulted one woman, and another coach reportedly sexually assaulted an MTF individual. A student also reportedly jumped from a building.","contact":"Consultation phone: 0536-3279118  Mobile: +86 15866550891  WeChat: 15866550891  QQ: 1049115002  Douyin: Xinzhongzi Education  Website: www.sdxinzhongzi.com","inputType":"Victim","dateStart":"","dateEnd":""},{"name":"ShandongXinZhongZiEducation Consulting Co., Ltd.","addr":"ShandongWeiFangQingZhou City Flower and Seedling Trading Center East 500Mi Road North","province":"Shandong","prov":"WeiFang City QingZhou City","city":"","county":"","else":"","lat":36.62728,"lng":118.58882,"experience":"","HMaster":"CaoYongWang","scandal":"A coach reportedly sexually assaulted one woman, and another coach reportedly sexually assaulted an MTF individual. A student also reportedly jumped from a building.","contact":"Consultation service phone: 0536-3279118\nAddress: 500 meters east of the flower and seedling trading center, north side of the road, Qingzhou, Weifang, Shandong\nMobile: +86 15866550891\nWeChat: 15866550891\nQQ: 1049115002\nDouyin: Xinzhongzi Education\nWebsite: www.sdxinzhongzi.com","inputType":"Victim's representative","dateStart":"","dateEnd":""},{"name":"ZhengMiaoQiDeYouth Special Training School","addr":"HanChuan City MaKou Town ChangWan","province":"Hubei","prov":"XiaoGan City","city":"","county":"","else":"There were no especially extreme methods, but the rest was all there.","lat":30.55324999999999,"lng":113.8285,"experience":"I do not remember the exact date I was sent there; I was inside for about a month. There was no electric shock or anything extremely out of bounds, but it was fully militarized management with corporal punishment, and if you resisted the instructors you would be beaten. Most of the people there were so-called troublemakers, people who had gotten into trouble outside, or people labeled as internet-addicted. If someone was being \"corrected,\" they would definitely take them. I only stayed for a month, so I cannot confirm every detail, but inside you had to obey the instructors and endure it if you wanted to get out faster. They made you write letters to your parents and record videos, and you had to pretend you understood that you were \"wrong.\" That made it a little easier to survive.","HMaster":"Only the legal representative could be identified as DuanXiMing","scandal":"Corporal punishment, solitary confinement, intimidation, deceiving both guardians and students, and financial fraud.","contact":"+86 18707177614","inputType":"Victim","dateStart":"","dateEnd":""},{"name":"Henan Province JuXianEducation","addr":"Henan Province KaiFeng City WeiShi County DaQiao Township Feng Village JuXianChongBen Education Group KaiFengXiao District","province":"Henan","prov":"Henan Province KaiFeng City WeiShi County","city":"","county":"","else":"None.","lat":34.39867,"lng":114.15588,"experience":"The institution uses militarized management. The instructors stage students' daily lives for the camera and send the footage to parents. There is corporal punishment, verbal abuse, restrictions on personal freedom, and brainwashing.","HMaster":"ZhuZhenHua","scandal":"Corporal punishment, restriction of personal freedom, and brainwashing as discipline.","contact":"+86 13938487765","inputType":"Victim","dateStart":"","dateEnd":""},{"name":"ChongqingFuMiaoYouth Growth Practice Center","addr":"Chongqing City JiangJin District DingShanSubdistrictG212(XiangJiangAvenue)","province":"Chongqing","prov":"JiangJin District","city":"","county":"","else":"","lat":29.27761,"lng":106.26636,"experience":"","HMaster":"","scandal":"","contact":"Douyin: 49607113690","inputType":"Victim's representative","dateStart":"","dateEnd":""},{"name":"ChongqingFuMiaoYouth Growth Practice Center","addr":"Chongqing City JiangJin District 212National Highway255 No.","province":"Chongqing","prov":"JiangJin District","city":"","county":"","else":"","lat":29.2901399,"lng":106.25936,"experience":"People considered \"normal\" still had some basic rights, but those with intellectual disabilities were bullied, including chokeholds, forced stretching, handcuffs, corporal punishment, and squat-jumps.","HMaster":"ZhangHong LiaoShaSha","scandal":"Illegal detention and abducting adults from their homes.","contact":"No. 255, National Highway 212, Jiangjin District, Chongqing. It should also have a Douyin account and a WeChat official account.","inputType":"Victim","dateStart":"","dateEnd":""},{"name":"ChongqingFuMiaoYouth Growth Practice Center","addr":"JiangJin District YongCun School","province":"Chongqing","prov":"JiangJin District","city":"","county":"","else":"","lat":29.2901399,"lng":106.25936,"experience":"","HMaster":"","scandal":"","contact":"Yongcun School, Jiangjin District","inputType":"Victim","dateStart":"","dateEnd":""},{"name":"ZiBoDeZhiSchool","addr":"latlng36.975710,117.929233","province":"Shandong","prov":"ZiBo City HuanTai County XinCheng Town","city":"","county":"","else":"This school belongs to the same institutional network as Zixing Dezhi Future.","lat":36.97571,"lng":117.92923300000007,"experience":"In the routine militarized training, if you performed poorly you had to stand at attention in the sun. At night you were not allowed to sleep, there were frequent midnight emergency assemblies, and if an instructor disliked you they would beat you.","HMaster":"DengTingBao","scandal":"Corporal punishment, impersonating police to seize people from their homes, and illegal detention.","contact":"400 850 8770","inputType":"Victim","dateStart":"","dateEnd":""},{"name":"DeZhiYouth Growth Center","addr":"WuHu City WuWei City DouGou Town HuaLong Community ShangWen School","province":"Anhui","prov":"WuHu City WuWei City","city":"","county":"","else":"Wuhu Dezhi Expansion Training Co., Ltd.","lat":31.3581,"lng":118.02013,"experience":"","HMaster":"LvHongLiu,LvHuan","scandal":"Illegal detention\nFalse advertising\nOperating beyond the scope of its business license\nCorporal punishment\nKidnapping","contact":"Shangwen School, Hualong Community, Dougou Town, Wuwei","inputType":"Victim","dateStart":"","dateEnd":""},{"name":"Guangdong Province MaoMing City ChunYuSchool","addr":"Guangdong Province MaoMing City Mao South District LiuWu Village","province":"Guangdong","prov":"MaoMing City","city":"","county":"","else":"","lat":21.6410899,"lng":110.91879,"experience":"I was asleep in the car that day and had no idea I was being taken to a \"correction\" institution. Four instructors dragged me out of the vehicle; I struggled, dropped my phone, and the director followed behind picking up my phone and backpack while they searched through my things and even took my snacks. When I reached the so-called little black room, those four instructors threw me straight onto the ground and I cried loudly.\n\nI was assigned to Class 14 of the Third Squadron, whose homeroom teacher was Li Kun. The school had both psychologists and instructors. The instructors watched us every day, while the psychologists occasionally came to do counseling; each psychologist handled about fifteen students. If a dorm was too noisy during shower time, they would call an emergency assembly. Even in winter, they could make you come out half-naked, and if you took more than six seconds they made you do squats. The First and Second Squadrons were even harsher than mine and often used corporal punishment such as squats, 180-degree jumps, front-and-back jumps, and forced running. All four squadrons had similar practices. Runs usually started at one kilometer, and some teachers forced you to keep running if you failed to finish within a set time. One of the things I remember most is people being made to run a total of ten kilometers over six or seven days; even if your training performance was poor, punishment continued until your legs gave out.\n\nThe psychological staff were even more outrageous. Some students wanted to write letters home telling their parents what was really happening, but once the psychologists saw the letters they said they were \"non-compliant\" and refused to send them. Counseling was supposedly there to calm emotions, but it was also used for brainwashing. My assigned psychologist was the chief psychologist. I saw files that stayed open for months even after people had supposedly graduated; they said there was a high chance the monitoring continued into adulthood. If you did not obey and your parents complained to the psychologist, the psychologist might recommend sending you back a second time.\n\nOne thing that stuck with me was a classmate who got reported for hitting someone. When the teacher asked him about it, he first denied it, and the teacher slammed him into the wall so hard we could hear the banging. Near the time I left, I was once punished for disobeying. A teacher made me squat off to one side, then decided he did not like how I was doing it and hit me twice with a clothes hanger, hard enough that the marks were still visible days after I got home. He later applied medicated oil, but when I reported him the director simply covered for him.\n\nI also heard older students say that three people once escaped by climbing over the wall, and that two were caught by the dean of discipline and beaten until they vomited blood, though I cannot verify that myself. I personally went through two major crackdowns. On August 31, after a director named Li Dedie was criticized by higher-ups during an inspection, he lost his temper. My squadron had to run fifteen laps, other squadrons did squats, and that night we had to record staged \"virtue and self-cultivation\" material. Later, because a few people were noisy, everyone was driven downstairs, made to run roughly four kilometers, and then forced to do squats for twenty minutes regardless of count. Even after it started raining, they still kept us standing there for about five minutes before letting us go back. The following Saturday the corporal punishment continued.\n\nThe second crackdown was on September 21, and again the punishment went on without stopping even though I was already dizzy. Teachers also threatened people. One summer Monday, when we were supposed to prepare speeches under the national flag and the auditorium was too noisy, a teacher threatened to turn the air conditioner to 30 degrees Celsius and make everyone do squats inside like \"roasting rats.\" Students who stayed there for a full year reportedly went through this kind of mass punishment four times: once in the cafeteria, once in the dorms, and twice in the auditorium. A teacher even bragged about it. During two assessments our class ranked near the bottom, and on October 1, while others were doing activities, we were still training under the blazing sun. It was miserable.","HMaster":"Principal: ChengShengHong, LiHongWei, YangXiao(ZheGeHaoXiangShiZuiDaDe, DanShiWoBuZhiDaoTaJiaoShenMeMing) Director of Admissions: LiYuanYuan Director of Psychology: KeZhiYan Director of Moral Education: LiDeDie XuHaiPeng Head of Academic Courses: LiYuanYuan ZhangShuiQing","scandal":"Corporal punishment, false advertising, brainwashing, and violence.","contact":"+86 18819882766","inputType":"Victim","dateStart":"","dateEnd":""},{"name":"XuZhouThe KingCombat Factory","addr":"Jiangsu Province XuZhou City","province":"Jiangsu","prov":"XuZhou City","city":"","county":"","else":"","lat":34.2043999,"lng":117.28577,"experience":"I was not a student at this institution myself. I saw online that it beat and physically punished people with Prader-Willi syndrome, other people with obesity, and other trainees as well.","HMaster":"LuZhiBo","scandal":"Beatings, corporal punishment, threats, and intimidation.","contact":"Douyin: Lu Zhibo","inputType":"Victim's representative","dateStart":"","dateEnd":""},{"name":"PingChangZhongDeHospital","addr":"Sichuan Province BaZhong City PingChang County WuMu Town Xin Street 25 No.","province":"Sichuan","prov":"BaZhong City PingChang County","city":"","county":"","else":"","lat":31.45371,"lng":106.97198,"experience":"There were beatings and abuse, the victim was forced into labor, had their head shaved and sugar cut off, was subjected to sexual molestation and assault, and was fed swill from a breeding farm.","HMaster":"","scandal":"Illegal detention, abuse, sexual molestation, and rape.","contact":"No. 25 Xinjie, Wumu Town, Pingchang County, Bazhong, Sichuan","inputType":"Victim","dateStart":"","dateEnd":""},{"name":"XinQiDianSuZhiEducation","addr":"ShaPingBaZhongLiang Town XinXing Road 8 No.","province":"Chongqing","prov":"South An District","city":"","county":"","else":"","lat":29.63706,"lng":106.41373,"experience":"I was at the entrance of a hospital when two instructors in plain clothes said I was suspected of fraud and dragged me straight into a van. After arriving at the school, the violence got even worse: they forcibly dragged me inside, and the wounds on my legs still had not healed and were covered in blood. Students there suffer both mental and physical torment. There are private beatings, some students are driven to self-harm, and if you do not obey you are punished with squatting. Every day is either exercise or class. If you do not eat, they beat you. The instructors also humiliate students, punish them, and scream and curse at them if they do not train. In the videos they make you record, you are not allowed to say that you want to go home, or you will be punished. In short, if you do not obey, you get beaten or forced to squat. The training load every day is enormous; some students run until they vomit and still are not allowed to rest.","HMaster":"WangHaoDong","scandal":"Illegally restricting students' personal freedom and running obedience-test management.","contact":"No. 8 Xinxing Road, Zhongliang Town, Shapingba","inputType":"Victim","dateStart":"","dateEnd":""},{"name":"ChengDuBaiCaoYuanExpansion Training Co., Ltd.","addr":"JuYuan Town 009 Township Dao, YuanAiHuaKindergarten","province":"Sichuan","prov":"ChengDu City DuJiangYan City","city":"","county":"","else":"According to information on the uniforms, it is directly connected to the Sichuan campus that became notorious in 2022 and received only a light administrative penalty. It appears to have relocated not long after I was rescued. Corporate data also suggests the company is undergoing simplified deregistration, while the people involved are still operating \"correction\" institutions around Sichuan and Chongqing.","lat":30.9445,"lng":103.67954,"experience":"On the afternoon of the 30th, my parents, acting on instructions, tricked me into a vehicle disguised as a ride-hailing car for a \"correction\" institution, where I was forcibly abducted and illegally detained.\n\nWhen the car left the expressway, I tried to jump out but failed. The driver of the car behind noticed what was happening and called the police, but after the local police learned about it they deliberately did nothing and never contacted me.\n\nThat same night my long hair was shaved off.\n\nDaily life mostly involved corporal punishment, brainwashing through so-called \"traditional studies,\" and occasional \"psychological counseling.\" Sleep deprivation and forced drills were common, and hygiene conditions were extremely poor.\n\nI was eventually rescued by friends because I had sent a scheduled message in advance.","HMaster":"LiuDiWei/JiangLiang","scandal":"Illegal detention and corporal punishment.","contact":"+86 19112170997","inputType":"Victim","dateStart":"","dateEnd":""},{"name":"HenanRuoShuiYouth Quality Education Base","addr":"Henan Province XinMi City FuXiShan Scenic AreaJianShan Village","province":"Henan","prov":"ZhengZhou City XinMi City","city":"","county":"","else":"","lat":34.60689,"lng":113.248558,"experience":"","HMaster":"","scandal":"","contact":"Jianshan Village, Fuxi Mountain Scenic Area, Xinmi, Henan","inputType":"Victim","dateStart":"","dateEnd":""},{"name":"ZhiLiYouth Quality Education","addr":"Chongqing City TongLiang District LiJiaShan3SheYouth Training Camp","province":"Chongqing","prov":"TongLiang District","city":"","county":"","else":"This school appears to have re-emerged under a new identity.","lat":29.909995,"lng":106.015082,"experience":"I was bullied by both students and instructors, subjected to high-intensity corporal punishment, and some girls were reportedly sexually assaulted.","HMaster":"ChengQiuJie","scandal":"Someone died at its predecessor institution.","contact":"+86 13452056756","inputType":"Victim","dateStart":"","dateEnd":""},{"name":"HenanRuoShuiYouth Quality Education Base","addr":"Henan Province XinMi City FuXiShan Scenic AreaJianShan Village","province":"Henan","prov":"ZhengZhou City XinMi City","city":"","county":"","else":"","lat":34.60689,"lng":113.248558,"experience":"","HMaster":"","scandal":"","contact":"Jianshan Village, Fuxi Mountain Scenic Area, Xinmi, Henan","inputType":"Victim","dateStart":"","dateEnd":""},{"name":"GuizhouLiXinSuZhiEducation","addr":"GuiYang City GuiAn Avenue GuizhouJunDao National Defense Training Base","province":"Guizhou","prov":"GuiYang City HuaXi District","city":"","county":"","else":"The real person in charge of several campuses is reportedly a high-ranking official from Chongqing surnamed Zhang, said to be very wealthy and to own three buildings. Most of this school's staff and senior management are reportedly not locals from Guizhou, but people from Chongqing.","lat":26.6475899,"lng":106.63019,"experience":"It was extremely closed off. Students were often physically punished for no reason and frequently subjected to collective punishment. If an instructor was in a bad mood, students would be punished. They forced students to tell their parents that everything there was wonderful, and if anyone said even slightly negative things to their parents they could lose all contact with them. Every move students made was monitored. Students who genuinely had depression or other mental illnesses were dismissed as pretending and then subjected to brainwashing. The school also had no business license. People had reported it even before me, but those reports all failed. When inspectors came, the licenses they checked were always those of a different legal base, so the school was never affected. According to the principal himself, renting that base costs hundreds of thousands of yuan a year. Even if someone leaves and comes back later, they still are not allowed to bring a phone into the base, and the teachers and instructors keep checking again and again.","HMaster":"Executive Principal LongJun","scandal":"None. As noted above, reports currently appear ineffective.","contact":"Jundao National Defense Training Base, Guian Avenue, Huaxi District, Guiyang, Guizhou","inputType":"Victim","dateStart":"","dateEnd":""},{"name":"ChongqingZhiQiangSuZhiTraining Base","addr":"Chongqing City LiangJiang New District FangFei Road 06-09 No.","province":"Chongqing","prov":"Yu North District","city":"","county":"","else":"","lat":29.5656843,"lng":106.5511838,"experience":"Corporal punishment and beatings... then being made to scoop toilet waste and drink swill... I have partial memory loss.","HMaster":"","scandal":"Corporal punishment and illegal detention.","contact":"No. 06-09 Fangfei Road, Liangjiang New Area, Chongqing","inputType":"Victim","dateStart":"","dateEnd":""},{"name":"ShanxiLiangJianEducation Consulting Co., Ltd.","addr":"Shanxi Province LinFen City YaoDu District Liu Village Town South Wo Village South 66 No.","province":"Shanxi","prov":"LinFen City YaoDu District","city":"","county":"","else":"","lat":36.1169499,"lng":111.44907,"experience":"","HMaster":"YangXiaoJun","scandal":"","contact":"+86 15536754446","inputType":"Victim","dateStart":"","dateEnd":""},{"name":"XingHuaLiZhiEducation Consulting Center","addr":"WuMing District YongXing South Road 9 No.","province":"Guangxi","prov":"South Ning City WuMing District","city":"","county":"","else":"","lat":23.1586599,"lng":108.27461,"experience":"","HMaster":"LiangMei","scandal":"Illegal detention and corporal punishment.","contact":"+86 15878782915","inputType":"Victim","dateStart":"","dateEnd":""},{"name":"SongShanShaoLinMartial Arts and Academic School","addr":"Henan Province ZhengZhou City DengFeng City DengFengAvenue288 No.","province":"Henan","prov":"ZhengZhou City DengFeng City","city":"","county":"","else":"","lat":34.45488,"lng":113.01869,"experience":"Daily life hardly changed. Reveille was around 6 a.m., followed by a 5 to 8 kilometer run. Most coaches were very young, usually between 17 and 24. Some had no sympathy at all for students who could not keep up and imposed corporal punishment afterward. After the run we went back to the dorm to tidy up and wash, then had breakfast, which was usually mantou, porridge, pickles, and leftovers from the day before. The schedule was generally half a day of martial arts classes and half a day of academic classes, with breaks every one or two hours, though the overall intensity was still high.\n\nAcademic teaching quality was generally poor. If you were caught slacking off, you could be punished on the spot. If you were officially criticized, there was a good chance a coach would later beat you in the dormitory with one of three different sticks. Students were forbidden from moving around alone; even free movement had to be done in groups of two or three. If you were caught trying to run away, several coaches and admissions staff could drag you into a room and beat you, sometimes severely enough to leave lasting injuries.\n\nThe school had serious clique problems and severe bullying. Some coaches held positions in the group's administrative office or inspection division, so the internal reporting system was ineffective and could even lead to retaliation. Coaches often turned a blind eye unless something became too serious. I was once nearly suffocated with a pillow, and the matter was quietly dropped. Students who were easygoing were routinely bullied, and you could not casually choose sides.\n\nI was also privately questioned by admissions staff after same-sex romantic messages were found on my phone. They lectured me from a traditionalist perspective but did not really intervene with the coaches. Food was not especially bad by institutional standards, and there were sometimes films or rest time on weekends. Even so, this was still a coercive camp. Even if it now tries to present itself as \"free of corporal punishment,\" the underlying confinement and ideological control still remain.","HMaster":"LiuHeLong","scandal":"Corporal punishment, concealing students' health conditions, shielding staff, and intentionally causing disabling injury.","contact":"189 3767 9266","inputType":"Victim","dateStart":"","dateEnd":""},{"name":"ChongqingBaiLingErExpansion Training Co., Ltd.","addr":"Chongqing City TongLiang District East ChengSubdistrict OfficeAnQuan Village Liu Group","province":"Chongqing","prov":"TongLiang District","city":"","county":"","else":"","lat":29.83129439999999,"lng":106.0770834,"experience":"","HMaster":"XuShuMing","scandal":"Beating people and corporal punishment.","contact":"Group 6, Anquan Village, Dongcheng Subdistrict, Tongliang District, Chongqing","inputType":"Victim","dateStart":"","dateEnd":""},{"name":"XingHuaGrowth Base","addr":"Guangxi Zhuang Autonomous Region GuiGang City Gang North District TanYang Village Village WeiHui East South Side","province":"Guangxi","prov":"GuiGang City Gang North District","city":"","county":"","else":"","lat":23.334354,"lng":109.600218,"experience":"","HMaster":"LiangMei","scandal":"Corporal punishment and illegal detention.","contact":"+86 15878782915","inputType":"Victim's representative","dateStart":"","dateEnd":""},{"name":"GuangxiDeXinLiZhiEducation","addr":"Guangxi Zhuang Autonomous Region South Ning City XingNing District WuTang Town YongWu East Road 37 No.","province":"Guangxi","prov":"South Ning City","city":"","county":"","else":"","lat":22.94025,"lng":108.55125,"experience":"","HMaster":"","scandal":"","contact":"+86 13677714898","inputType":"Victim's representative","dateStart":"","dateEnd":""},{"name":"GuangxiHaoXiangLiZhiEducation","addr":"South NingXingNing District XingNing District KunLun Avenue 60 No. ZongHeLouADong South Ning City XingNing District KunLun Avenue 60 No. ZongHeLou(JinLiFangDaJiuDian)ADong4LouA4","province":"Guangxi","prov":"South Ning City","city":"","county":"","else":"","lat":22.86326,"lng":108.38303,"experience":"","HMaster":"LiuXueRong","scandal":"","contact":"+86 18078114897","inputType":"Victim","dateStart":"","dateEnd":""},{"name":"GuangxiHongZhiQingShaoNianSuZhiTeXunBase","addr":"Guangxi Zhuang Autonomous Region South Ning City West Township Tang District TanLuo Town 010 County Dao","province":"Guangxi","prov":"South Ning City","city":"","county":"","else":"","lat":22.92208,"lng":107.97992,"experience":"","HMaster":"","scandal":"","contact":"Unknown for now","inputType":"Victim's representative","dateStart":"","dateEnd":""},{"name":"HangZhouXingHuaLiZhiEducation","addr":"Zhejiang Province HangZhou City XiaoShan District SuoQian Town East Fan Road 62 No. BenNiaoBangKeJiChuangYeYuanA District 243Shi","province":"Zhejiang","prov":"HangZhou City","city":"","county":"","else":"","lat":30.08392,"lng":120.28688,"experience":"","HMaster":"","scandal":"","contact":"Unknown for now","inputType":"Victim","dateStart":"","dateEnd":""},{"name":"Chongqing City South Chuan District XiangYangSchool","addr":"Chongqing City South Chuan District ShuiJiang Town TianGong Road 192 No.","province":"Chongqing","prov":"South Chuan District","city":"","county":"","else":"","lat":29.242144,"lng":107.2878994,"experience":"","HMaster":"FengJiuQiang TangJin","scandal":"Xiangyang School in Nanchuan District, Chongqing, although designated as a \"special school\" under the Law on the Prevention of Juvenile Delinquency, is accused of abusing public authority and illegally recruiting students. Despite being a public-interest institution, it allegedly charges parents of non-court-ordered students 2,500 yuan per month, with a six-month minimum payment, and profits by obscuring the school's special legal status while misleading the public into thinking any child can be sent there with parental consent.\n\nIt is further accused of taking people into the school against their will and without their prior knowledge, immediately subjecting them to correctional education without any real review or appeal process, and illegally confining them while depriving them of personal freedom and communication with the outside world.\n\nThe Nanchuan District Education Commission's stability office is also accused of falsely claiming that the student met the statutory threshold of \"serious misconduct,\" unlawfully approving placement in the special school, and using distorted legal interpretations to expand the so-called family-sent student system.","contact":"+86 13658461578","inputType":"Victim","dateStart":"","dateEnd":""},{"name":"LiaoningZhengDeQingShaoNianTeXunBase","addr":"Liaoning Province TieLing City KaiYuan City PianPoTai Village Village MinWeiYuanHuiSouth Side","province":"Liaoning","prov":"TieLing City","city":"","county":"","else":"","lat":42.50438,"lng":124.0606,"experience":"","HMaster":"","scandal":"","contact":"None for now","inputType":"Victim's representative","dateStart":"","dateEnd":""},{"name":"LiaoningHuiNuoTeEducationInformation Consulting Co., Ltd.","addr":"Liaoning Province FuShun City WangHua District ShuGuangShiJiaXiao District d No. Lou","province":"Liaoning","prov":"FuShun City","city":"","county":"","else":"","lat":41.850049,"lng":123.812838,"experience":"","HMaster":"","scandal":"","contact":"+86 18595516126","inputType":"Victim's representative","dateStart":"","dateEnd":""},{"name":"XingHuaLiZhiSchool","addr":"WuMing District YongXing South Road 9 No.","province":"Guangxi","prov":"South Ning City WuMing District","city":"","county":"","else":"This is a larger group with branch campuses in Nanning, Guigang, Guangdong, Beijing, and elsewhere.","lat":23.1586599,"lng":108.27461,"experience":"I may have written too much, so please forgive me. During what they called the pickup stage, they usually sent one instructor plus two or three long-term residents to seize someone at the address. After grabbing the person, they would often buy them one meal and one drink to take to the camp as a so-called last meal. Escape was basically impossible: the camp was in a newly developed area, confinement was extremely strict, the surroundings were sparse, and they were colluding with people nearby. Everyone had to sign contracts. In effect, guardianship was temporarily handed over to the camp, which gave it enormous power to control us; even calling the police could get you dragged back, because a loophole in the law was being exploited through the guardians.\n\nPeople were ranked into three classes that one could move through: the Reform Class, the Conduct-and-Knowledge Class, and the Joy-of-Learning Class. New arrivals were all placed in the Reform Class. In the dorms, the boys were divided into five classes and the girls into two. Class One was full of the fiercest people, Class Two was slightly less so, Class Three had a mix of everyone, Class Four was for younger kids, and Class Five was for the so-called old, weak, sick, and disabled. From Monday to Friday there were three classes in the morning, two in the afternoon, and extra drills at night. People in the Reform Class only got four or five classroom periods a week; the rest of the time was outdoor militarized training, mixed with standing at attention, morning and afternoon runs, and extra night drills depending on the instructors' moods. After about a month we could test into the Conduct-and-Knowledge Class by memorizing five \"gratitude\" essays, learning a sign-language dance, and answering questions about the ideological material taught in class. Advancement brought more class time and somewhat less training.\n\nThere was a point system. Individuals gained points by answering questions in class or helping instructors and teachers, and lost points for sleeping, talking, fighting, or causing trouble. Whole classes also lost points for poor cleaning, noise at night, and similar issues. Scores were settled weekly. If you earned enough points you could get red tickets to buy snacks, cola, or even luosifen. If points were deducted, the supervising instructor's pay could also be docked, so the instructor would pressure the class monitor, and that person would often be subjected to physical training punishment or direct corporal punishment. Under that pressure, almost nobody could refuse punishment.\n\nThere were several psychologists, each responsible for different groups. Some were kinder and spoke soothingly; others were the opposite. Every week we could be called in for about an hour of counseling. At first it was one-on-one, but later it was often done in groups and resembled the routines of a psychiatric hospital. Performance was everything: if you did not \"perform\" well, you were not getting out. The more you gave up, the harder it was to leave, so people were forced to struggle half-dead just to get out sooner.\n\nIf you wanted to talk to your parents, you first had to write a letter. Paper and pens were treated as important supplies. In the Reform Class each person was given two notebooks and one pen, one notebook for weekly summaries and one for reflections, and after class they were collected back into storage; you could not take extra notebooks or pens to the dorm. Once you reached the Conduct-and-Knowledge Class or above, notebooks and pens became more freely available. After about two months you could call home, but only if the supervising instructor signed off on the phone slip, and the psychologist also had to arrange it. Instructors could refuse based on your so-called performance.\n\nOn weekends they often played films in the classroom, and if it rained we rested in the dorms, chatted, read, or wrote. The dorms had beds, storage boxes, washstands, and urine buckets, and students kept most of their belongings either in the boxes or hidden under mattresses and quilts because instructors rarely checked carefully. The camp itself was small. It had once been part of another camp and was later rebuilt after that place shut down. It had two-story dormitories, six standard classrooms, a rooftop exercise yard, a basketball court, communal toilets that also served as showers, and long sinks in the corridor for washing clothes. Girls were managed by one female instructor and three female life staff, while the male instructors generally interfered less in the girls' area.\n\nAdvancing to the Joy-of-Learning Class was extremely difficult. Out of roughly 180 to 200 people in the camp, only about 9 to 16 were in that class. After two months you could test for it, but the requirements were much harder, including mastering more content and several sign-language dances. That class had the easiest life, with most of the week spent in self-study in the classroom apart from the usual runs and standing at attention. Sometimes students in that class could even join outside activities marketed as study tours. The food standards were actually not low by camp standards: lunch and dinner usually included meat, three dishes, and rice, and there were nightly snacks if you ate quickly enough.\n\nBecause of an incident in 2024, the camp later started controlling fights more strictly. Ordinary physical training became somewhat lighter than before. Overall, you could survive there, and compared with some even more brutal camps it may have seemed like the \"brightest\" one, but it was still a camp. It now tries to look polished and claim to be free of corporal punishment, but the ideological imprisonment at the core of the system is still there.","HMaster":"GanXiaoWu","scandal":"According to second-hand accounts from former students, corporal punishment before 2024 was extremely severe, with frequent fights, group beatings, and abuse. Blind spots in the dormitory area and old black rooms were allegedly used for assaults, and in the shower people were reportedly blinded with body wash, the lights were turned off, and then they were beaten. Infectious disease was also said to spread widely with little intervention.\n\nIn 2024, eight people reportedly organized an escape. After they were caught and the police only made a token response, those who remained were allegedly subjected to further abuse, and only then did the camp begin controlling fights more strictly. The institution is also accused of deceiving both students and parents.\n\nThe rest of this entry consists of additional former-student testimony describing extreme running punishments, beatings with batons, being forced to smell waste or drink contaminated water, injuries such as broken ribs, and other forms of abuse. The account argues that the institution now tries to market itself as free of corporal punishment while the coercive system remains unchanged.","contact":"+86 18376099862","inputType":"Victim","dateStart":"","dateEnd":""},{"name":"ChangDe City XinAn School(Public)","addr":"Hunan Province ChangDe City WuLing District QingNian Road 1599 No.","province":"Hunan","prov":"ChangDe City","city":"","county":"","else":"","lat":29.02996,"lng":111.7412,"experience":"","HMaster":"","scandal":"","contact":"Website: http://www.cdxaxx.com/","inputType":"","dateStart":"","dateEnd":""},{"name":"ZhengMiaoQiDeChangDeFenXiao","addr":"Hunan Province ChangDe City DingCheng District GuanXi Town GuanXi Village","province":"Hunan","prov":"ChangDe City","city":"","county":"","else":"","lat":29.10987,"lng":111.62356,"experience":"","HMaster":"","scandal":"","contact":"","inputType":"","dateStart":"","dateEnd":""},{"name":"ChangDeShanYiSchool","addr":"Hunan Province ChangDe City DingCheng District GuanXi Town BaiJiaPingXiao District ChangDeAvenue Nearby","province":"Hunan","prov":"ChangDe City","city":"","county":"","else":"","lat":29.10987,"lng":111.62356,"experience":"","HMaster":"","scandal":"","contact":"","inputType":"","dateStart":"","dateEnd":""},{"name":"ChangDeLiZhiYouth Special Training School","addr":"Hunan Province ChangDe City DingCheng District ShiBanTan Town ShiBanTan Village","province":"Hunan","prov":"ChangDe City","city":"","county":"","else":"","lat":29.151853,"lng":111.64073,"experience":"","HMaster":"","scandal":"","contact":"","inputType":"","dateStart":"","dateEnd":""},{"name":"ChenXing Special Guidance School","addr":"Hunan Province ChenZhou City North Hu District LuoXian Subdistrict LuoXian West Road 289 No.","province":"Hunan","prov":"ChenZhou City","city":"","county":"","else":"","lat":25.78256,"lng":112.99491,"experience":"","HMaster":"","scandal":"","contact":"","inputType":"","dateStart":"","dateEnd":""},{"name":"HunanPositivePsychologyJiaoZhengBase","addr":"Hunan Province ChenZhou City North Hu District LuoXian Subdistrict South Ling Avenue 168 No.","province":"Hunan","prov":"ChenZhou City","city":"","county":"","else":"","lat":25.76002,"lng":113.00233,"experience":"","HMaster":"","scandal":"","contact":"","inputType":"","dateStart":"","dateEnd":""},{"name":"ChenZhouZhengXinYouth Special Training School","addr":"Hunan Province ChenZhou City North Hu District ChenJiangSubdistrictChenJiang Village","province":"Hunan","prov":"ChenZhou City","city":"","county":"","else":"","lat":25.78852,"lng":113.02674,"experience":"","HMaster":"","scandal":"","contact":"","inputType":"","dateStart":"","dateEnd":""},{"name":"ChenZhouFengBiShiWenWuTeXunBase","addr":"Hunan Province ChenZhou City North Hu District ShiGaiTangSubdistrictShiGaiTang Village","province":"Hunan","prov":"ChenZhou City","city":"","county":"","else":"","lat":25.689628,"lng":112.976694,"experience":"","HMaster":"","scandal":"","contact":"","inputType":"","dateStart":"","dateEnd":""},{"name":"ChenZhouShanZhiSpecial Training School","addr":"Hunan Province ChenZhou City North Hu District TongXin Road 88 No.","province":"Hunan","prov":"ChenZhou City","city":"","county":"","else":"","lat":26.39511,"lng":111.30637,"experience":"","HMaster":"","scandal":"","contact":"","inputType":"","dateStart":"","dateEnd":""},{"name":"HengYangTroubled YouthJiaoZhengBase","addr":"Hunan Province HengYang City Heng South County YunJi Town BinHe Road 168 No.","province":"Hunan","prov":"HengYang City","city":"","county":"","else":"","lat":27.24043,"lng":111.73587,"experience":"","HMaster":"","scandal":"","contact":"","inputType":"","dateStart":"","dateEnd":""},{"name":"HengYangLiZhiFengBiShiSpecial Training School","addr":"Hunan Province HengYang City Heng South County YunJi Town XinTang Village","province":"Hunan","prov":"HengYang City","city":"","county":"","else":"","lat":26.684192,"lng":112.930348,"experience":"","HMaster":"","scandal":"","contact":"","inputType":"","dateStart":"","dateEnd":""},{"name":"HengYangShanYiSpecial Training School","addr":"Hunan Province HengYang City Heng South County CheJiangSubdistrictCheJiang Village S219 Province Dao Nearby","province":"Hunan","prov":"HengYang City","city":"","county":"","else":"","lat":26.68697,"lng":112.59198,"experience":"","HMaster":"","scandal":"","contact":"","inputType":"","dateStart":"","dateEnd":""},{"name":"HengYang City MinorsXingWeiJiaoZhengBase","addr":"Hunan Province HengYang City ShiGu District HuangShaWanSubdistrictJinBu Village","province":"Hunan","prov":"HengYang City","city":"","county":"","else":"","lat":26.919539,"lng":112.601537,"experience":"","HMaster":"","scandal":"","contact":"","inputType":"","dateStart":"","dateEnd":""},{"name":"HengYangGuoXueLiZhiSpecial Training School","addr":"Hunan Province HengYang City Heng South County YunJi Town YunJiXiao District YunFeng Road 88 No.","province":"Hunan","prov":"HengYang City","city":"","county":"","else":"","lat":26.738097,"lng":112.672006,"experience":"","HMaster":"","scandal":"","contact":"","inputType":"","dateStart":"","dateEnd":""},{"name":"HengYangZhengDeQingShaoNianEducation School","addr":"Hunan Province HengYang City HengYang County West Du Town MeiHua Village","province":"Hunan","prov":"HengYang City","city":"","county":"","else":"","lat":26.9725,"lng":112.362952,"experience":"","HMaster":"","scandal":"","contact":"","inputType":"","dateStart":"","dateEnd":""},{"name":"HengYangZhengXinYouth Special Training School","addr":"Hunan Province HengYang City Heng South County SanTang Town SanYuan Village","province":"Hunan","prov":"HengYang City","city":"","county":"","else":"","lat":26.8674499,"lng":112.50108,"experience":"","HMaster":"","scandal":"","contact":"","inputType":"","dateStart":"","dateEnd":""},{"name":"HengYangConversionPsychologyStudio","addr":"Hunan Province HengYang City ZhengXiang District JieFang West Road 289 No. XiangJiangCheng City Square1Dong15Ceng","province":"Hunan","prov":"HengYang City","city":"","county":"","else":"","lat":26.8927818,"lng":112.5633014,"experience":"","HMaster":"","scandal":"","contact":"","inputType":"","dateStart":"","dateEnd":""},{"name":"HengYangTraditional CultureConversionStudio","addr":"Hunan Province HengYang City ZhuHui District East Feng South Road 168 No. East FangMingCheng2Dong8Ceng","province":"Hunan","prov":"HengYang City","city":"","county":"","else":"","lat":26.870599,"lng":112.659362,"experience":"","HMaster":"","scandal":"","contact":"","inputType":"","dateStart":"","dateEnd":""},{"name":"HengYangFengBiShiRebelliousGuanJiaoSchool","addr":"Hunan Province HengYang City Heng South County LiaoTian Town LiaoTian Village","province":"Hunan","prov":"HengYang City","city":"","county":"","else":"","lat":26.671273,"lng":112.76423,"experience":"","HMaster":"","scandal":"","contact":"","inputType":"","dateStart":"","dateEnd":""},{"name":"HuaiHuaYangGuangShaoNianJunXiao","addr":"Hunan Province HuaiHua City ZhongFang County LuYang Town LuYang Village","province":"Hunan","prov":"HuaiHua City","city":"","county":"","else":"","lat":27.6062,"lng":110.10217,"experience":"","HMaster":"","scandal":"","contact":"","inputType":"","dateStart":"","dateEnd":""},{"name":"HuaiHuaZhengMiaoQiDeCamp","addr":"Hunan Province HuaiHua City YuanLing County LiangShuiJing Town LiangShuiJing Village","province":"Hunan","prov":"HuaiHua City","city":"","county":"","else":"","lat":28.42826,"lng":110.47093,"experience":"","HMaster":"","scandal":"","contact":"","inputType":"","dateStart":"","dateEnd":""},{"name":"HuaiHuaPanNiFengBiShiSpecial Training School","addr":"Hunan Province HuaiHua City HeCheng District TuoYuan Subdistrict CollegeLingXiao District WuXi Avenue Nearby","province":"Hunan","prov":"HuaiHua City","city":"","county":"","else":"","lat":27.5746079,"lng":110.0212796,"experience":"","HMaster":"","scandal":"","contact":"","inputType":"","dateStart":"","dateEnd":""},{"name":"HuaiHuaZhanQiYouth Growth Base","addr":"Hunan Province HuaiHua City ZhongFang County ZhongFang Town LongJing Village","province":"Hunan","prov":"HuaiHua City","city":"","county":"","else":"","lat":27.426986,"lng":109.950455,"experience":"","HMaster":"","scandal":"","contact":"","inputType":"","dateStart":"","dateEnd":""},{"name":"HuaiHuaLiJianSpecial Training School","addr":"Hunan Province HuaiHua City HeCheng District YingKou Township ZhuXi Village","province":"Hunan","prov":"HuaiHua City","city":"","county":"","else":"","lat":27.54548,"lng":109.96733,"experience":"","HMaster":"","scandal":"","contact":"","inputType":"","dateStart":"","dateEnd":""},{"name":"HuaiHuaQingJiao Special Training Camp","addr":"Hunan Province HuaiHua City HeCheng District He West SubdistrictBinJiangXiao District WuYangAvenue199 No.","province":"Hunan","prov":"HuaiHua City","city":"","county":"","else":"","lat":27.50593,"lng":109.94419,"experience":"","HMaster":"","scandal":"","contact":"","inputType":"","dateStart":"","dateEnd":""},{"name":"HuaiHuaYunZhanQuality Education Base","addr":"Hunan Province HuaiHua City ZhongFang County HuaQiao Town HuaQiao Village","province":"Hunan","prov":"HuaiHua City","city":"","county":"","else":"","lat":27.698504,"lng":110.15344,"experience":"","HMaster":"","scandal":"","contact":"","inputType":"","dateStart":"","dateEnd":""},{"name":"HuaiHuaDeYaQingShaoNianSchool","addr":"Hunan Province HuaiHua City HeCheng District YingFengSubdistrictYingFengXiao District YingFeng East Road 289 No.","province":"Hunan","prov":"HuaiHua City","city":"","county":"","else":"","lat":27.5634,"lng":110.0106,"experience":"","HMaster":"","scandal":"","contact":"","inputType":"","dateStart":"","dateEnd":""},{"name":"HuaiHuaQiHangLiZhiClosed School","addr":"Hunan Province HuaiHua City ZhongFang County ZhongFang Town JingPing Village","province":"Hunan","prov":"HuaiHua City","city":"","county":"","else":"","lat":27.42281,"lng":109.93833,"experience":"","HMaster":"","scandal":"","contact":"","inputType":"","dateStart":"","dateEnd":""},{"name":"HuaiHuaMingDeWenHuaSpecial Training School","addr":"Hunan Province HuaiHua City ZhongFang County TongWan Town TongWan Village","province":"Hunan","prov":"HuaiHua City","city":"","county":"","else":"","lat":27.58369,"lng":110.28425,"experience":"","HMaster":"","scandal":"","contact":"","inputType":"","dateStart":"","dateEnd":""},{"name":"LouDiLiZhiYouth Special Training School","addr":"Hunan Province LouDi City LouXing District WanBao Town WanBao Village","province":"Hunan","prov":"LouDi City","city":"","county":"","else":"","lat":27.6492099,"lng":112.01048,"experience":"","HMaster":"","scandal":"","contact":"Douyin: lz19918383088","inputType":"","dateStart":"","dateEnd":""},{"name":"HunanLouDiJuvenile Detention CenterSpecial Training School","addr":"Hunan Province LouDi City LouXing District HuangNiTang Subdistrict XinXing North Road Nearby","province":"Hunan","prov":"LouDi City","city":"","county":"","else":"","lat":27.75912,"lng":112.00077,"experience":"","HMaster":"","scandal":"","contact":"","inputType":"","dateStart":"","dateEnd":""},{"name":"LouDiZhengMiaoQiDeFenXiao","addr":"Hunan Province LouDi City LouXing District ShanShan Town ShanShan Village","province":"Hunan","prov":"LouDi City","city":"","county":"","else":"","lat":27.816294,"lng":112.022472,"experience":"","HMaster":"","scandal":"","contact":"","inputType":"","dateStart":"","dateEnd":""},{"name":"LouDiShanDeEducation Base","addr":"Hunan Province LouDi City LianYuan City LiuMuTang Subdistrict LianShuiXiao District","province":"Hunan","prov":"LouDi City","city":"","county":"","else":"","lat":27.68767,"lng":111.65352,"experience":"","HMaster":"","scandal":"","contact":"","inputType":"","dateStart":"","dateEnd":""},{"name":"ShaoYangPanNiHaiZiGuanJiaoSchool","addr":"Hunan Province ShaoYang City ShuangQing District DuTouQiao Town DuTouQiao Village 3 Group","province":"Hunan","prov":"ShaoYang City","city":"","county":"","else":"","lat":27.19894,"lng":111.57302,"experience":"","HMaster":"","scandal":"","contact":"","inputType":"","dateStart":"","dateEnd":""},{"name":"ShaoYangQiHangLiZhiSpecial Training School","addr":"Hunan Province ShaoYang City ShaoYang County BaiCang Town BaiCang Village 10 Group","province":"Hunan","prov":"ShaoYang City","city":"","county":"","else":"","lat":26.878242,"lng":111.296013,"experience":"","HMaster":"","scandal":"","contact":"","inputType":"","dateStart":"","dateEnd":""},{"name":"ShaoYang County QingShaoNianFamily Education Institution","addr":"Hunan Province ShaoYang City ShaoYang County TangDuKou Town TangDuKouXiao District ShaoXin Street 56 No.","province":"Hunan","prov":"ShaoYang City","city":"","county":"","else":"","lat":26.9868497,"lng":111.2764854,"experience":"","HMaster":"","scandal":"","contact":"","inputType":"","dateStart":"","dateEnd":""},{"name":"ShaoYangMingDeLiZhiSpecial Training School","addr":"Hunan Province ShaoYang City ShaoYang County TangDuKou Town GuiHua Village","province":"Hunan","prov":"ShaoYang City","city":"","county":"","else":"","lat":26.991688,"lng":111.276184,"experience":"","HMaster":"","scandal":"","contact":"","inputType":"","dateStart":"","dateEnd":""},{"name":"ShaoYangGanDianEducation Consulting Co., Ltd.","addr":"Hunan Province ShaoYang City DaXiang District MinZhou West Road 168 No. HuaXiaXingYuan2Dong9Ceng","province":"Hunan","prov":"ShaoYang City","city":"","county":"","else":"","lat":27.221128,"lng":111.448673,"experience":"","HMaster":"","scandal":"","contact":"","inputType":"","dateStart":"","dateEnd":""},{"name":"XiangTanLiZhengSuZhiEducation School","addr":"Hunan Province XiangTan City YueTang District ZhaoShan Town JinXing Village","province":"Hunan","prov":"XiangTan City","city":"","county":"","else":"","lat":27.93239,"lng":113.02042,"experience":"","HMaster":"","scandal":"","contact":"","inputType":"","dateStart":"","dateEnd":""},{"name":"XiangTanXiangXueEducation School","addr":"Hunan Province XiangTan City XiangTan County YiSuHe Town YunLongXiao District TianYi Avenue 168 No.","province":"Hunan","prov":"XiangTan City","city":"","county":"","else":"","lat":27.77268,"lng":112.955638,"experience":"","HMaster":"","scandal":"","contact":"","inputType":"","dateStart":"","dateEnd":""},{"name":"XiangTan County Youth Specialized School(Public)","addr":"Hunan Province XiangTan City XiangTan County Zhong Road Pu Town ZhuTang Village","province":"Hunan","prov":"XiangTan City","city":"","county":"","else":"","lat":27.58654,"lng":112.9424,"experience":"","HMaster":"","scandal":"","contact":"","inputType":"","dateStart":"","dateEnd":""},{"name":"XiangTanQingShaoNianPsychologyBehavioral Correction School","addr":"Hunan Province XiangTan City YuHu District HuTan Township YueHuXiao District BaoQing Road 269 No.","province":"Hunan","prov":"XiangTan City","city":"","county":"","else":"","lat":27.85314,"lng":112.88706,"experience":"","HMaster":"","scandal":"","contact":"","inputType":"","dateStart":"","dateEnd":""},{"name":"XiangTanRebellious ChildrenFengBiShiSpecial Training School","addr":"Hunan Province XiangTan City YueTang District ZhaoShan Town ZhaoShanXiao District FuRong Avenue Nearby","province":"Hunan","prov":"XiangTan City","city":"","county":"","else":"","lat":27.89234,"lng":112.99405,"experience":"","HMaster":"","scandal":"","contact":"","inputType":"","dateStart":"","dateEnd":""},{"name":"XiangTanGanHuaEducationSpecial Training School","addr":"Hunan Province XiangTan City YueTang District ZhaoShan Town TuanShan Village","province":"Hunan","prov":"XiangTan City","city":"","county":"","else":"","lat":27.989201,"lng":113.04552,"experience":"","HMaster":"","scandal":"","contact":"","inputType":"","dateStart":"","dateEnd":""},{"name":"XianGeYouth Quality EducationTraining School","addr":"HunanXiangTan City Xiang Township City JinShi Town","province":"Hunan","prov":"XiangTan City","city":"","county":"","else":"","lat":27.99942,"lng":112.46035,"experience":"","HMaster":"","scandal":"","contact":"","inputType":"","dateStart":"","dateEnd":""},{"name":"ZhengMiaoQiDeXiang West Camp","addr":"Hunan Province Xiang West TuJiaZuMiao Autonomous PrefectureYongShun County LingXi Town BaoTa Village","province":"Hunan","prov":"Xiang West Zhou","city":"","county":"","else":"","lat":29.00284,"lng":109.85043,"experience":"","HMaster":"","scandal":"","contact":"","inputType":"","dateStart":"","dateEnd":""},{"name":"Xiang West HuiTengYouthChengChang School(Camp)","addr":"Hunan Province Xiang West TuJiaZuMiao Autonomous PrefectureJiShou City ZhaiYang Township ZhaiYang Village","province":"Hunan","prov":"Xiang West Zhou","city":"","county":"","else":"","lat":28.3060799,"lng":109.6584,"experience":"","HMaster":"","scandal":"","contact":"","inputType":"","dateStart":"","dateEnd":""},{"name":"YiYang City ZiYangQingShaoNianJiaoZhengSchool","addr":"Hunan Province YiYang City ZiYang District ChangChun Town BaiMaShan Village","province":"Hunan","prov":"YiYang City","city":"","county":"","else":"","lat":28.61101,"lng":112.32155,"experience":"","HMaster":"","scandal":"","contact":"","inputType":"","dateStart":"","dateEnd":""},{"name":"YiYangDisobedientYangGuangBase","addr":"Hunan Province YiYang City ZiYang District YingFengQiao Town XinTang Village","province":"Hunan","prov":"YiYang City","city":"","county":"","else":"","lat":28.659881,"lng":112.269673,"experience":"","HMaster":"","scandal":"","contact":"","inputType":"","dateStart":"","dateEnd":""},{"name":"YiYangShanZhiSpecial Training School","addr":"Hunan Province YiYang City HeShan District LongGuangQiao Town LongGuangQiao Village","province":"Hunan","prov":"YiYang City","city":"","county":"","else":"","lat":28.551,"lng":112.40604,"experience":"","HMaster":"","scandal":"","contact":"","inputType":"","dateStart":"","dateEnd":""},{"name":"YiYang City HeShan District ChengCaiLiZhiEducation School","addr":"Hunan Province YiYang City HeShan District TaoHuaLunSubdistrictTaoHuaLun West Road 289 No.","province":"Hunan","prov":"YiYang City","city":"","county":"","else":"","lat":28.58182,"lng":112.35976,"experience":"","HMaster":"","scandal":"","contact":"","inputType":"","dateStart":"","dateEnd":""},{"name":"YiYangBoRuiYouth Growth Center","addr":"Hunan Province YiYang City HeShan District HeShanSubdistrictHeShan North Road 88 No.","province":"Hunan","prov":"YiYang City","city":"","county":"","else":"","lat":28.5780107,"lng":112.3740996,"experience":"","HMaster":"","scandal":"","contact":"","inputType":"","dateStart":"","dateEnd":""},{"name":"YiYangQiHangWeiLaiSpecial Training School","addr":"Hunan Province YiYang City HeShan District HengLongQiao Town HengLongQiao Village","province":"Hunan","prov":"YiYang City","city":"","county":"","else":"","lat":28.363384,"lng":112.469903,"experience":"","HMaster":"","scandal":"","contact":"","inputType":"","dateStart":"","dateEnd":""},{"name":"YiYangMingDePanNiJiaoZhengBase","addr":"Hunan Province YiYang City ZiYang District ChangChun Town DaSanQiao Village","province":"Hunan","prov":"YiYang City","city":"","county":"","else":"","lat":28.61101,"lng":112.32155,"experience":"","HMaster":"","scandal":"","contact":"","inputType":"","dateStart":"","dateEnd":""},{"name":"YongZhouQingShaoNianFengBiShiSpecial Training School","addr":"Hunan Province YongZhou City LingLing District ShiShanJiao Subdistrict ShiShanJiao Village","province":"Hunan","prov":"YongZhou City","city":"","county":"","else":"","lat":26.19934,"lng":111.56023,"experience":"","HMaster":"","scandal":"","contact":"","inputType":"","dateStart":"","dateEnd":""},{"name":"YongZhouYouth Education XunLian School(Public)","addr":"Hunan Province YongZhou City LengShuiTan District PuLiQiao Town XiaoShui Village","province":"Hunan","prov":"YongZhou City","city":"","county":"","else":"","lat":26.6495999,"lng":111.60171,"experience":"","HMaster":"","scandal":"","contact":"","inputType":"","dateStart":"","dateEnd":""},{"name":"YongZhouLiZhiClosed School","addr":"Hunan Province YongZhou City LingLing District ShuiKouShan Town ShuiKouShan Village","province":"Hunan","prov":"YongZhou City","city":"","county":"","else":"","lat":26.00667,"lng":111.37218,"experience":"","HMaster":"","scandal":"","contact":"","inputType":"","dateStart":"","dateEnd":""},{"name":"YongZhouMingDeLiZhiSchool","addr":"Hunan Province YongZhou City LengShuiTan District FengHuang Subdistrict FengHuangXiao District WuTong Road 168 No.","province":"Hunan","prov":"YongZhou City","city":"","county":"","else":"","lat":26.45972,"lng":111.5931236,"experience":"","HMaster":"","scandal":"","contact":"","inputType":"","dateStart":"","dateEnd":""},{"name":"YongZhouChunHuiSchool","addr":"Hunan Province YongZhou City LingLing District ShiShanJiao Subdistrict ZhuTang Village 4 Group","province":"Hunan","prov":"YongZhou City","city":"","county":"","else":"","lat":26.19934,"lng":111.56023,"experience":"","HMaster":"","scandal":"","contact":"","inputType":"","dateStart":"","dateEnd":""},{"name":"YongZhouZhanQiYouth Growth Base","addr":"Hunan Province YongZhou City QiYang City ChangHong Subdistrict ChangHongXiao District ShuGuang Road 88 No.","province":"Hunan","prov":"YongZhou City","city":"","county":"","else":"","lat":28.13629,"lng":113.00625,"experience":"","HMaster":"","scandal":"","contact":"","inputType":"","dateStart":"","dateEnd":""},{"name":"YueYangQiZhiQingShaoNianChengChangSchool","addr":"Hunan Province YueYang City LinXiang City YangLouSi Town ShuiTian Village 10 Group","province":"Hunan","prov":"YueYang City","city":"","county":"","else":"","lat":29.50576199999999,"lng":113.619635,"experience":"","HMaster":"","scandal":"","contact":"","inputType":"","dateStart":"","dateEnd":""},{"name":"YueYangHuiTengQingShaoNianChengChangSchool","addr":"Hunan Province YueYang City XiangYin County YuanJiaPu Town YouAi Village","province":"Hunan","prov":"YueYang City","city":"","county":"","else":"","lat":28.612674,"lng":112.940289,"experience":"","HMaster":"","scandal":"","contact":"","inputType":"","dateStart":"","dateEnd":""},{"name":"XiangYinXiangXueEducationFenXiao","addr":"Hunan Province YueYang City XiangYin County East Tang Town East TangXiao District ZhenXing Road 88 No.","province":"Hunan","prov":"YueYang City","city":"","county":"","else":"","lat":28.772948,"lng":112.968689,"experience":"","HMaster":"","scandal":"","contact":"","inputType":"","dateStart":"","dateEnd":""},{"name":"XiangYinShengBoQingShaoNianPsychologyChengChangTraining School","addr":"Hunan Province YueYang City XiangYin County WenXingSubdistrictDongMao Road 168 No.","province":"Hunan","prov":"YueYang City","city":"","county":"","else":"","lat":28.679586,"lng":112.889003,"experience":"","HMaster":"","scandal":"","contact":"","inputType":"","dateStart":"","dateEnd":""},{"name":"YueYangZhengXinYouth Special Training School","addr":"Hunan Province YueYang City YueYang County XinKai Town LongWan Village 6 Group","province":"Hunan","prov":"YueYang City","city":"","county":"","else":"","lat":29.246929,"lng":113.179144,"experience":"","HMaster":"","scandal":"","contact":"","inputType":"","dateStart":"","dateEnd":""},{"name":"ZhongShanTechnical Vocational School","addr":"HunanYueYangXiangYin County","province":"Hunan","prov":"YueYang City","city":"","county":"","else":"","lat":28.670807,"lng":112.883301,"experience":"","HMaster":"","scandal":"","contact":"","inputType":"","dateStart":"","dateEnd":""},{"name":"ChunLeiYouth Special Training School","addr":"HunanYueYang City MiLuo City","province":"Hunan","prov":"YueYang City","city":"","county":"","else":"","lat":28.80641989999999,"lng":113.06711,"experience":"","HMaster":"","scandal":"","contact":"","inputType":"","dateStart":"","dateEnd":""},{"name":"XiangYinYingGaoTeLiZhiEducation School","addr":"HunanYueYangXiangYin County Ling North Town","province":"Hunan","prov":"YueYang City","city":"","county":"","else":"","lat":28.56383,"lng":112.7956,"experience":"","HMaster":"","scandal":"","contact":"","inputType":"","dateStart":"","dateEnd":""},{"name":"XiangYinYiSuTi Guidance Service Center","addr":"HunanYueYangXiangYin County","province":"Hunan","prov":"YueYang City","city":"","county":"","else":"","lat":28.670807,"lng":112.883301,"experience":"","HMaster":"","scandal":"","contact":"","inputType":"","dateStart":"","dateEnd":""},{"name":"ShanYingTeXunEducation School","addr":"HunanYueYangXiangYin County","province":"Hunan","prov":"YueYang City","city":"","county":"","else":"","lat":28.670807,"lng":112.883301,"experience":"","HMaster":"","scandal":"","contact":"","inputType":"","dateStart":"","dateEnd":""},{"name":"XiangYinQinQingFuDaoFitness Service Center","addr":"HunanYueYang City XiangYin County YangShaHu Town","province":"Hunan","prov":"YueYang City","city":"","county":"","else":"","lat":28.612674,"lng":112.940289,"experience":"","HMaster":"","scandal":"","contact":"","inputType":"","dateStart":"","dateEnd":""},{"name":"XiangYinHuiTongFitness Service Center","addr":"HunanYueYang City XiangYin County YangShaHu Town","province":"Hunan","prov":"YueYang City","city":"","county":"","else":"","lat":28.612674,"lng":112.940289,"experience":"","HMaster":"","scandal":"","contact":"","inputType":"","dateStart":"","dateEnd":""},{"name":"XiangYinFuHaoHaiSuZhiEducation","addr":"HunanYueYang City XiangYin County","province":"Hunan","prov":"YueYang City","city":"","county":"","else":"","lat":28.670807,"lng":112.883301,"experience":"","HMaster":"","scandal":"","contact":"","inputType":"","dateStart":"","dateEnd":""},{"name":"ChangShaZeBangQingShaoNianChengChangSchool","addr":"Hunan Province ChangSha City ChangSha County AnSha Town HuaQiao Village 88 No.","province":"Hunan","prov":"ChangSha City","city":"","county":"","else":"","lat":28.370996,"lng":113.108854,"experience":"","HMaster":"","scandal":"","contact":"","inputType":"","dateStart":"","dateEnd":""},{"name":"HunanShenDuChengChangEducation","addr":"Hunan Province ChangSha City ChangSha County XingSha Subdistrict KaiYuan East Road 95 No. HuaRunZhiDiSquareErQi15Dong","province":"Hunan","prov":"ChangSha City","city":"","county":"","else":"","lat":28.245714,"lng":113.110386,"experience":"","HMaster":"","scandal":"","contact":"","inputType":"","dateStart":"","dateEnd":""},{"name":"HunanYouth Growth Base","addr":"Hunan Province ChangSha City WangCheng District QiaoYi Town HeiMiFengPian District","province":"Hunan","prov":"ChangSha City","city":"","county":"","else":"","lat":28.408907,"lng":112.931407,"experience":"","HMaster":"","scandal":"","contact":"","inputType":"","dateStart":"","dateEnd":""},{"name":"JieLongEducation Group","addr":"Hunan Province ChangSha City ChangSha County JiangBei Town WuChuanHu Village","province":"Hunan","prov":"ChangSha City","city":"","county":"","else":"","lat":28.11734,"lng":113.35646,"experience":"","HMaster":"","scandal":"","contact":"","inputType":"","dateStart":"","dateEnd":""},{"name":"ChangShaZhengMiaoQiDeSpecial Training School","addr":"Hunan Province ChangSha City WangCheng District QiaoKou Town Ji Town","province":"Hunan","prov":"ChangSha City","city":"","county":"","else":"","lat":28.50368,"lng":112.73202,"experience":"","HMaster":"","scandal":"","contact":"","inputType":"","dateStart":"","dateEnd":""},{"name":"XiangXueEducationGuanLiGroupCo., Ltd.","addr":"Hunan Province ChangSha City YueLu District HouHuYiShuYuanD District 62Dong","province":"Hunan","prov":"ChangSha City","city":"","county":"","else":"","lat":28.16082,"lng":112.94289,"experience":"","HMaster":"","scandal":"","contact":"","inputType":"","dateStart":"","dateEnd":""},{"name":"ChangShaXingHuoChengChangFuDaoCenter","addr":"Hunan Province ChangSha City YuHua District YuHuaTingSubdistrictXinJian West Road 37 No.","province":"Hunan","prov":"ChangSha City","city":"","county":"","else":"","lat":28.155,"lng":112.99278,"experience":"","HMaster":"","scandal":"","contact":"","inputType":"","dateStart":"","dateEnd":""},{"name":"ChangShaLanTianJiaoZhengSchool","addr":"Hunan Province ChangSha City Tian New District South Tuo Subdistrict South Tuo Road 23 No.","province":"Hunan","prov":"ChangSha City","city":"","county":"","else":"","lat":28.02138,"lng":112.98142,"experience":"","HMaster":"","scandal":"","contact":"","inputType":"","dateStart":"","dateEnd":""},{"name":"ChangShaYingGaoTeLiZhiEducation School","addr":"Hunan Province ChangSha City WangCheng District QiaoKou Town BaiLeYuanLvYou District South Side","province":"Hunan","prov":"ChangSha City","city":"","county":"","else":"","lat":28.50154,"lng":112.742011,"experience":"","HMaster":"","scandal":"","contact":"","inputType":"","dateStart":"","dateEnd":""},{"name":"ChangSha South TuYouth Quality EducationSchool","addr":"Hunan Province ChangSha City ChangSha County AnSha Town MaoTangPuXiao District 107National Highway Nearby","province":"Hunan","prov":"ChangSha City","city":"","county":"","else":"","lat":28.369364,"lng":113.104381,"experience":"","HMaster":"","scandal":"","contact":"","inputType":"","dateStart":"","dateEnd":""},{"name":"ChangShaQiDeLiZhiEducation School","addr":"Hunan Province ChangSha City KaiFu District ShaPingSubdistrictShaPingXiao District YuanLao Township ZhengFuDaYuan","province":"Hunan","prov":"ChangSha City","city":"","county":"","else":"","lat":28.33521,"lng":113.00007,"experience":"","HMaster":"","scandal":"","contact":"","inputType":"","dateStart":"","dateEnd":""},{"name":"ChangShaRuiZhiEducation School","addr":"Hunan Province ChangSha City WangCheng District GaoTangLing Subdistrict XinYang Village XinTangMiddle School JiuZhi","province":"Hunan","prov":"ChangSha City","city":"","county":"","else":"","lat":28.405698,"lng":112.753119,"experience":"","HMaster":"","scandal":"","contact":"","inputType":"","dateStart":"","dateEnd":""},{"name":"ChangShaLiJianYouth Training Camp","addr":"Hunan Province ChangSha City ChangSha County GuoYuan Town XunLongHeShengTaiYiShuXiao Town DuJuan Road 88 No.","province":"Hunan","prov":"ChangSha City","city":"","county":"","else":"","lat":28.34028,"lng":113.22404,"experience":"","HMaster":"","scandal":"","contact":"","inputType":"","dateStart":"","dateEnd":""},{"name":"ChangShaXinQiDiBehavioral Correction Center","addr":"Hunan Province ChangSha City Tian New District FuRong South Road ErDuan390 No. XinYuanJieZuo1Dong","province":"Hunan","prov":"ChangSha City","city":"","county":"","else":"","lat":28.12321,"lng":112.986609,"experience":"","HMaster":"","scandal":"","contact":"","inputType":"","dateStart":"","dateEnd":""},{"name":"ChangShaChaoYangZiRan Education School","addr":"Hunan Province ChangSha City ChangSha County KaiFu Town PiaoFengShan Village PiaoFengShanJing District Nearby","province":"Hunan","prov":"ChangSha City","city":"","county":"","else":"","lat":28.2579052,"lng":112.9865064,"experience":"","HMaster":"","scandal":"","contact":"","inputType":"","dateStart":"","dateEnd":""},{"name":"ChangShaZhiXingHeYiJiaXiaoGongYu Center","addr":"Hunan Province ChangSha City YuHua District JingLian Road 397 No. ZiMingDaXia22Ceng","province":"Hunan","prov":"ChangSha City","city":"","county":"","else":"","lat":28.11561,"lng":113.0162,"experience":"","HMaster":"","scandal":"","contact":"","inputType":"","dateStart":"","dateEnd":""},{"name":"ChangShaBoYaQuanRenEducationCollege","addr":"Hunan Province ChangSha City YuHua District GaoQiao Subdistrict ChaoHui Road 55 No. JinXiuZhongHuanXieZiLou","province":"Hunan","prov":"ChangSha City","city":"","county":"","else":"","lat":28.1619,"lng":113.02777,"experience":"","HMaster":"","scandal":"","contact":"","inputType":"","dateStart":"","dateEnd":""},{"name":"ChangShaRuiXingYiShuLiaoYu School","addr":"Hunan Province ChangSha City ChangSha County HuangHua Town HuangHuaGongYeYuan Nearby","province":"Hunan","prov":"ChangSha City","city":"","county":"","else":"","lat":28.234921,"lng":113.189132,"experience":"","HMaster":"","scandal":"","contact":"","inputType":"","dateStart":"","dateEnd":""},{"name":"ChangShaShanDeEducation Consulting Co., Ltd.","addr":"Hunan Province ChangSha City YuHua District WanJiaLiZhong Road ErDuan8 No. HuaChenShiJiSquare","province":"Hunan","prov":"ChangSha City","city":"","county":"","else":"","lat":28.16913,"lng":113.02919,"experience":"","HMaster":"","scandal":"","contact":"","inputType":"","dateStart":"","dateEnd":""},{"name":"ChangShaMingDeSpecial Training School","addr":"Hunan Province ChangSha City ChangSha County ChunHua Town ChunHuaXiao District ChunHuaAvenue Nearby","province":"Hunan","prov":"ChangSha City","city":"","county":"","else":"","lat":28.27804,"lng":113.25565,"experience":"","HMaster":"","scandal":"","contact":"","inputType":"","dateStart":"","dateEnd":""},{"name":"ChangShaLeiYingPanNiHaiZiJiaoZhengSchool","addr":"Hunan Province ChangSha City WangCheng District ChaTing Town JiuFengShanXiao District","province":"Hunan","prov":"ChangSha City","city":"","county":"","else":"","lat":28.495322,"lng":112.928867,"experience":"","HMaster":"","scandal":"","contact":"","inputType":"","dateStart":"","dateEnd":""},{"name":"ChangSha South HuaQingShaoNianTeXunBase","addr":"Hunan Province ChangSha City ChangSha County HuangHua Town HuangHua Village HuangGu Road 168 No.","province":"Hunan","prov":"ChangSha City","city":"","county":"","else":"","lat":28.2264,"lng":113.19708,"experience":"","HMaster":"","scandal":"","contact":"","inputType":"","dateStart":"","dateEnd":""},{"name":"ChangShaMingZhiQingShaoNianJiaoZhengSchool","addr":"Hunan Province ChangSha City LiuYang City GuGang Town BaoGaiSi Village BaoGaiSiJing District FuJin","province":"Hunan","prov":"ChangSha City","city":"","county":"","else":"","lat":28.28321,"lng":113.74797,"experience":"","HMaster":"","scandal":"","contact":"","inputType":"","dateStart":"","dateEnd":""},{"name":"ChangShaYangGuangYouth Special Training Camp","addr":"Hunan Province ChangSha City ChangSha County AnSha Town HuaQiao Village 88 No. Nearby","province":"Hunan","prov":"ChangSha City","city":"","county":"","else":"","lat":28.370996,"lng":113.108854,"experience":"","HMaster":"","scandal":"","contact":"","inputType":"","dateStart":"","dateEnd":""},{"name":"ChangShaLiFengSpecial Training School","addr":"Hunan Province ChangSha City WangCheng District QiaoKou Town TianXinPing Village","province":"Hunan","prov":"ChangSha City","city":"","county":"","else":"","lat":28.49394,"lng":112.72029,"experience":"","HMaster":"","scandal":"","contact":"","inputType":"","dateStart":"","dateEnd":""},{"name":"ChangSha City XinCheng School(Public)","addr":"Hunan Province ChangSha City ChangSha County QuanTangSubdistrict East Qi Road 78 No.","province":"Hunan","prov":"ChangSha City","city":"","county":"","else":"","lat":28.21972,"lng":113.11883,"experience":"","HMaster":"","scandal":"","contact":"","inputType":"","dateStart":"","dateEnd":""},{"name":"WuJingHunanZongDui Hospital InternetJieLiao Center","addr":"Hunan Province ChangSha City YueLu District YingWan Road 153 No. WuJingHunanZongDui Hospital MenZhen4Lou","province":"Hunan","prov":"ChangSha City","city":"","county":"","else":"","lat":28.199461,"lng":112.949345,"experience":"","HMaster":"","scandal":"","contact":"","inputType":"","dateStart":"","dateEnd":""},{"name":"ChangShaZhiXingShiJian Education School","addr":"Hunan Province ChangSha City ChangSha County JiangBei Town WuChuanHu Village JieLongEducation Group Nearby","province":"Hunan","prov":"ChangSha City","city":"","county":"","else":"","lat":28.11734,"lng":113.35646,"experience":"","HMaster":"","scandal":"","contact":"","inputType":"","dateStart":"","dateEnd":""},{"name":"ChangShaRuiZhiChengChangSpecial Training Camp","addr":"Hunan Province ChangSha City ChangSha County AnSha Town MaoTangPuXiao District ChangSha South TuSchool Nearby","province":"Hunan","prov":"ChangSha City","city":"","county":"","else":"","lat":28.370996,"lng":113.108854,"experience":"","HMaster":"","scandal":"","contact":"","inputType":"","dateStart":"","dateEnd":""},{"name":"ChangShaQiHangWeiLaiXunLianSchool","addr":"Hunan Province ChangSha City ChangSha County GuoYuan Town XunLongHeShengTaiXiao Town Inside","province":"Hunan","prov":"ChangSha City","city":"","county":"","else":"","lat":28.34028,"lng":113.22404,"experience":"","HMaster":"","scandal":"","contact":"","inputType":"","dateStart":"","dateEnd":""},{"name":"ChangShaChaoYangHuWaiTuoZhan School","addr":"Hunan Province ChangSha City ChangSha County KaiHui Town PiaoFengShan Village ChaoYangZiRan Education School Inside","province":"Hunan","prov":"ChangSha City","city":"","county":"","else":"","lat":28.58742,"lng":113.21424,"experience":"","HMaster":"","scandal":"","contact":"","inputType":"","dateStart":"","dateEnd":""},{"name":"ChangShaMingDeWenHuaSpecial Training School","addr":"Hunan Province ChangSha City ChangSha County ChunHua Town ChunHuaXiao District MingDeSpecial Training School Nearby","province":"Hunan","prov":"ChangSha City","city":"","county":"","else":"","lat":28.27804,"lng":113.25565,"experience":"","HMaster":"","scandal":"","contact":"","inputType":"","dateStart":"","dateEnd":""},{"name":"ChangShaXinDingPsychologyConsulting Center","addr":"Hunan Province ChangSha City YuHua District ShaoShan North Road 254 No. HuiFuCenterAZuo","province":"Hunan","prov":"ChangSha City","city":"","county":"","else":"","lat":28.18425,"lng":112.99687,"experience":"","HMaster":"","scandal":"","contact":"","inputType":"","dateStart":"","dateEnd":""},{"name":"ChangShaMuMuXingPsychologyZiXunStudio","addr":"Hunan Province ChangSha City YuHua District WanJiaLiZhong Road SanDuan59 No. WanKeJinYuHuaFu","province":"Hunan","prov":"ChangSha City","city":"","county":"","else":"","lat":28.12995,"lng":113.03688,"experience":"","HMaster":"","scandal":"","contact":"","inputType":"","dateStart":"","dateEnd":""},{"name":"ChangShaShanYiSpecial Training School","addr":"Hunan Province ChangSha City ChangSha County AnSha Town MaoTangPuXiao District","province":"Hunan","prov":"ChangSha City","city":"","county":"","else":"","lat":28.370996,"lng":113.108854,"experience":"","HMaster":"","scandal":"","contact":"","inputType":"","dateStart":"","dateEnd":""},{"name":"ChangShaZhengDeQingShaoNianEducation School","addr":"Hunan Province ChangSha City ChangSha County HuangHua Town HuangHua Village","province":"Hunan","prov":"ChangSha City","city":"","county":"","else":"","lat":28.234921,"lng":113.189132,"experience":"","HMaster":"","scandal":"","contact":"","inputType":"","dateStart":"","dateEnd":""},{"name":"ChangShaZhengXinYouth Special Training School","addr":"Hunan Province ChangSha City ChangSha County JiangBei Town WuChuanHu Village","province":"Hunan","prov":"ChangSha City","city":"","county":"","else":"","lat":28.11734,"lng":113.35646,"experience":"","HMaster":"","scandal":"","contact":"","inputType":"","dateStart":"","dateEnd":""},{"name":"ChangShaZhiXingEducationSpecial Training Camp","addr":"Hunan Province ChangSha City ChangSha County GuoYuan Town XunLongHeShengTaiXiao Town Inside","province":"Hunan","prov":"ChangSha City","city":"","county":"","else":"","lat":28.34028,"lng":113.22404,"experience":"","HMaster":"","scandal":"","contact":"","inputType":"","dateStart":"","dateEnd":""},{"name":"ChangShaMingDeLiZhiSpecial Training School","addr":"Hunan Province ChangSha City ChangSha County ChunHua Town ChunHuaXiao District","province":"Hunan","prov":"ChangSha City","city":"","county":"","else":"","lat":28.2786317,"lng":113.2569972,"experience":"","HMaster":"","scandal":"","contact":"","inputType":"","dateStart":"","dateEnd":""},{"name":"ChangShaJuvenile Detention CenterSpecial Training School","addr":"Hunan Province ChangSha City ChangSha County QuanTang Subdistrict East Qi Road YuPanPan Road JiaoChaKou Nearby","province":"Hunan","prov":"ChangSha City","city":"","county":"","else":"","lat":28.21817,"lng":113.11861,"experience":"","HMaster":"","scandal":"","contact":"","inputType":"","dateStart":"","dateEnd":""},{"name":"ChangShaZhiBangYang Education Consulting Co., Ltd.","addr":"Hunan Province ChangSha City ChangSha County XingShaSubdistrictKaiYuanZhong Road 88 No. XingLongGuoJiSquare1Dong","province":"Hunan","prov":"ChangSha City","city":"","county":"","else":"","lat":28.2455,"lng":113.08274,"experience":"","HMaster":"","scandal":"","contact":"","inputType":"","dateStart":"","dateEnd":""},{"name":"ChangShaXinYuJiaYuanPsychologyZiXunStudio","addr":"Hunan Province ChangSha City YuHua District ShaoShan North Road 254 No. HuiFuCenterBZuo","province":"Hunan","prov":"ChangSha City","city":"","county":"","else":"","lat":28.18425,"lng":112.99687,"experience":"","HMaster":"","scandal":"","contact":"","inputType":"","dateStart":"","dateEnd":""},{"name":"ChangShaXinLingXiuFuStudio","addr":"Hunan Province ChangSha City YuHua District GaoQiao Subdistrict MaWangDui South Road West ZiHuaYuan3Dong","province":"Hunan","prov":"ChangSha City","city":"","county":"","else":"","lat":28.17081,"lng":113.02516,"experience":"","HMaster":"","scandal":"","contact":"","inputType":"","dateStart":"","dateEnd":""},{"name":"HunanXing Psychology JiaoZheng Center(DiXia)","addr":"Hunan Province ChangSha City YuHua District GuiTang Subdistrict TiYuan Road HengDaLvZhou5Dong","province":"Hunan","prov":"ChangSha City","city":"","county":"","else":"","lat":28.13538,"lng":113.04384,"experience":"","HMaster":"","scandal":"","contact":"","inputType":"","dateStart":"","dateEnd":""},{"name":"LieYingTeXun(HunanQiangZhiTuoZhanMaJia)","addr":"Hunan Province ChangSha City ChangSha County GuoYuan Town XunLongHeShengTaiXiao Town","province":"Hunan","prov":"ChangSha City","city":"","county":"","else":"","lat":28.34028,"lng":113.22404,"experience":"","HMaster":"","scandal":"","contact":"","inputType":"","dateStart":"","dateEnd":""},{"name":"XinQiHangYouth Special Training School","addr":"Hunan Province ChangSha City ChangSha County AnSha Town HuaQiao Village 88 No. Nearby","province":"Hunan","prov":"ChangSha City","city":"","county":"","else":"","lat":28.370996,"lng":113.108854,"experience":"","HMaster":"","scandal":"","contact":"","inputType":"","dateStart":"","dateEnd":""},{"name":"HunanLiZhiGrowth Base","addr":"Hunan Province ChangSha City ChangSha County JiangBei Town WuChuanHu Village","province":"Hunan","prov":"ChangSha City","city":"","county":"","else":"","lat":28.11734,"lng":113.35646,"experience":"","HMaster":"","scandal":"","contact":"","inputType":"","dateStart":"","dateEnd":""},{"name":"HunanMingDeSuZhiEducation Consulting Co., Ltd.","addr":"Hunan Province ChangSha City ChangSha County XingShaSubdistrictKaiYuanZhong Road 88 No. XingLongGuoJiSquare","province":"Hunan","prov":"ChangSha City","city":"","county":"","else":"","lat":28.2455,"lng":113.08274,"experience":"","HMaster":"","scandal":"","contact":"","inputType":"","dateStart":"","dateEnd":""},{"name":"ZhuZhouTieXueShaoNianGrowth Base","addr":"Hunan Province ZhuZhou City TianYuan District QunFeng Town GaoTai Village","province":"Hunan","prov":"ZhuZhou City","city":"","county":"","else":"","lat":27.75594,"lng":113.10657,"experience":"","HMaster":"","scandal":"","contact":"","inputType":"","dateStart":"","dateEnd":""},{"name":"ZhuZhou City QingShaoNianXingWeiJiaoZhengTraining Center","addr":"Hunan Province ZhuZhou City TianYuan District TaiShan Road SubdistrictTaiShanxi Road Xiao District","province":"Hunan","prov":"ZhuZhou City","city":"","county":"","else":"","lat":27.821828,"lng":113.136055,"experience":"","HMaster":"","scandal":"","contact":"","inputType":"","dateStart":"","dateEnd":""},{"name":"ZhuZhouChengChangFangZhou Education Base","addr":"Hunan Province ZhuZhou City TianYuan District LiYu Subdistrict LiYuXiao District ZhuJiang North Road Nearby","province":"Hunan","prov":"ZhuZhou City","city":"","county":"","else":"","lat":27.8261,"lng":113.10087,"experience":"","HMaster":"","scandal":"","contact":"","inputType":"","dateStart":"","dateEnd":""},{"name":"ZhuZhouXinLingChengChangSpecial Training School","addr":"Hunan Province ZhuZhou City TianYuan District LiYu Subdistrict JiaZhaoYeJinYuTianXiaXiao District Nearby","province":"Hunan","prov":"ZhuZhou City","city":"","county":"","else":"","lat":27.82104,"lng":113.08508,"experience":"","HMaster":"","scandal":"","contact":"","inputType":"","dateStart":"","dateEnd":""},{"name":"ZhuZhouYangGuangYouth Special Training School","addr":"Hunan Province ZhuZhou City TianYuan District MaJiaHeSubdistrictGaoTangXiao District","province":"Hunan","prov":"ZhuZhou City","city":"","county":"","else":"","lat":27.79825,"lng":113.095,"experience":"","HMaster":"","scandal":"","contact":"","inputType":"","dateStart":"","dateEnd":""},{"name":"ZhuZhouFengMang Special Training School","addr":"Hunan Province ZhuZhou City TianYuan District LeiDaShi Town QingShi Village","province":"Hunan","prov":"ZhuZhou City","city":"","county":"","else":"","lat":27.678472,"lng":113.074978,"experience":"","HMaster":"","scandal":"","contact":"","inputType":"","dateStart":"","dateEnd":""},{"name":"ZhuZhouZhanQiQingShaoNianJunXiao","addr":"Hunan Province ZhuZhou City TianYuan District SanMen Town SanMen Village","province":"Hunan","prov":"ZhuZhou City","city":"","county":"","else":"","lat":27.5998755,"lng":113.1089589,"experience":"","HMaster":"","scandal":"","contact":"","inputType":"","dateStart":"","dateEnd":""},{"name":"ZhuZhouLiJianQuality Education Base","addr":"Hunan Province ZhuZhou City TianYuan District SongShan Road SubdistrictShaoShan Road Xiao District","province":"Hunan","prov":"ZhuZhou City","city":"","county":"","else":"","lat":27.83129,"lng":113.13373,"experience":"","HMaster":"","scandal":"","contact":"","inputType":"","dateStart":"","dateEnd":""},{"name":"XiangGanBianYouthJunXiao(ZhuZhouFenXiao)","addr":"Hunan Province ZhuZhou City LiLing City ShenTan Town ShenTan Village","province":"Hunan","prov":"ZhuZhou City","city":"","county":"","else":"","lat":27.519552,"lng":113.557841,"experience":"","HMaster":"","scandal":"","contact":"","inputType":"","dateStart":"","dateEnd":""},{"name":"ZhuZhouMingDeSpecial Training School","addr":"Hunan Province ZhuZhou City You County JiangQiao Subdistrict JiangQiaoXiao District YouZhou Avenue Nearby","province":"Hunan","prov":"ZhuZhou City","city":"","county":"","else":"","lat":27.01316,"lng":113.31786,"experience":"","HMaster":"","scandal":"","contact":"","inputType":"","dateStart":"","dateEnd":""},{"name":"HenanLiFengSuZhiEducation","addr":"ZhengZhou City ZhongYuan District TongBai South Road 238 No. KaiXuanMenDaXiaAZuo431Shi, 1304Shi; XinMi City XinHua Road Subdistrict XinHua Road LiFeng Education Base; XingYang City Gao Village Township Gao Village XingLiu Avenue 8 No.","province":"Henan","prov":"ZhongYuan District","city":"","county":"","else":"","lat":34.735972,"lng":113.6133436,"experience":"","HMaster":"","scandal":"","contact":"","inputType":"","dateStart":"","dateEnd":""},{"name":"HenanZhengMiaoQiDeTeXunBase","addr":"ZhengZhou City GongYi City XiaoGuan Town LongMen Village 4 Group","province":"Henan","prov":"GongYi City","city":"","county":"","else":"","lat":34.687866,"lng":113.153411,"experience":"","HMaster":"","scandal":"","contact":"","inputType":"","dateStart":"","dateEnd":""},{"name":"ZhengZhouSiTuLiZhiEducation School","addr":"ZhengZhou City ZhongYuan District LongHai West Road 338 No. ShengLongJinZhongHuanBZuo2103Shi; ZhengZhou City ZhongYuan District FuLi Road 18 No. ZhengZhouGuoFangKeJi School Yuan Inside","province":"Henan","prov":"ZhongYuan District","city":"","county":"","else":"","lat":34.73534000000001,"lng":113.61419,"experience":"","HMaster":"","scandal":"","contact":"","inputType":"","dateStart":"","dateEnd":""},{"name":"HenanYaShengSiQuality Education Base","addr":"ZhengZhou City ZhongMou County YaoJia Town YongJia Village (YuanZhi); ZhengZhou City ZhongMou County SanGuanMiao Town SanGuanErZhongSouth Side500MiGuoYuan(XianZhi)","province":"Henan","prov":"ZhongMou County","city":"","county":"","else":"","lat":34.50582199999999,"lng":113.945543,"experience":"","HMaster":"","scandal":"","contact":"","inputType":"","dateStart":"","dateEnd":""},{"name":"HenanShanLingChengChangEducation","addr":"ZhengZhou City JinShui District WenHua North Road 106 No. HanHaiAiTe Center 1208Shi","province":"Henan","prov":"JinShui District","city":"","county":"","else":"","lat":34.842454,"lng":113.6515591,"experience":"","HMaster":"","scandal":"","contact":"","inputType":"","dateStart":"","dateEnd":""},{"name":"HenanHuanDi Psychology GanYu School","addr":"ZhengZhou City ZhongYuan District JianShe West Road 99 No. XingLianCenter15Ceng","province":"Henan","prov":"ZhongYuan District","city":"","county":"","else":"","lat":34.75598,"lng":113.60752,"experience":"","HMaster":"","scandal":"","contact":"","inputType":"","dateStart":"","dateEnd":""},{"name":"ZhengZhouXinZhiYuPsychologyZiXun","addr":"ZhengZhou City JinShui District JingSan Road 68 No. PingAnBaoXianDaXia1102Shi","province":"Henan","prov":"JinShui District","city":"","county":"","else":"","lat":34.79387,"lng":113.69214,"experience":"","HMaster":"","scandal":"","contact":"","inputType":"","dateStart":"","dateEnd":""},{"name":"ZhengZhouAiZhiYuPsychology","addr":"ZhengZhou City ErQi District HangHaiZhong Road 163 No. DingShengShiDaiSquareBZuo905Shi","province":"Henan","prov":"ErQi District","city":"","county":"","else":"","lat":34.71964,"lng":113.63795,"experience":"","HMaster":"","scandal":"","contact":"","inputType":"","dateStart":"","dateEnd":""},{"name":"HenanZhiLiTeJiao(ZhengZhouXiao District)","addr":"XingYang City QiaoLou Town ChuTang Village ZhongYuan West Road YuWanShan Road JiaoChaKouXiang West 1000Mi Road North","province":"Henan","prov":"XingYang City","city":"","county":"","else":"","lat":34.6973699,"lng":113.43607,"experience":"","HMaster":"","scandal":"","contact":"","inputType":"","dateStart":"","dateEnd":""},{"name":"HenanNiuTePsychologyEducation","addr":"ZhengZhou City GaoXin District KeXueAvenue57 No. GuoJiaUniversityKeJiYuan1 No. Lou8Ceng","province":"Henan","prov":"GaoXin District","city":"","county":"","else":"","lat":34.80713,"lng":113.57639,"experience":"","HMaster":"","scandal":"","contact":"","inputType":"","dateStart":"","dateEnd":""},{"name":"HenanKeZhenTuoZhan(KeZhenSuZhiYing)","addr":"XinZheng City LongHu Town Hua South ChengEr Road YuQiuShi Road JiaoChaKouDianShangYuan3Dong","province":"Henan","prov":"XinZheng City","city":"","county":"","else":"","lat":34.60121,"lng":113.73225,"experience":"","HMaster":"","scandal":"","contact":"","inputType":"","dateStart":"","dateEnd":""},{"name":"HenanMingDeYangGuangGrowth Camp","addr":"XingYang City CuiMiao Town DiGou Village","province":"Henan","prov":"XingYang City","city":"","county":"","else":"","lat":34.672806,"lng":113.354804,"experience":"","HMaster":"","scandal":"","contact":"","inputType":"","dateStart":"","dateEnd":""},{"name":"HenanShuRenQingShaoNianSuZhiSchool","addr":"ZhengZhou City HuiJi District HuaYuanKou Town BaBao Village","province":"Henan","prov":"HuiJi District","city":"","county":"","else":"","lat":34.874804,"lng":113.672521,"experience":"","HMaster":"","scandal":"","contact":"","inputType":"","dateStart":"","dateEnd":""},{"name":"HenanZhongDeLiZhi Education","addr":"ZhengZhou City ErQi District ChangJiang Road 126 No. YaXingShengShiJiaYuan52 No. Lou1DanYuan101Shi","province":"Henan","prov":"ErQi District","city":"","county":"","else":"","lat":34.71035,"lng":113.67802,"experience":"","HMaster":"","scandal":"","contact":"","inputType":"","dateStart":"","dateEnd":""},{"name":"HenanLiXinZhiQingShaoNianTeXun","addr":"XinZheng City XinDian Town XinDian Avenue YuQianZhuangDa Street JiaoChaKou","province":"Henan","prov":"XinZheng City","city":"","county":"","else":"","lat":34.3811,"lng":113.60695,"experience":"","HMaster":"","scandal":"","contact":"","inputType":"","dateStart":"","dateEnd":""},{"name":"ZhengZhouMengZhiYiJieWangSchool","addr":"ZhengZhou City ZhongYuan District West LiuHu Subdistrict SunZhuang Village","province":"Henan","prov":"ZhongYuan District","city":"","county":"","else":"","lat":34.7625223,"lng":113.5390249,"experience":"","HMaster":"","scandal":"","contact":"","inputType":"","dateStart":"","dateEnd":""},{"name":"HenanHuHang Education(ZhengZhouXiao District)","addr":"ZhengZhou City GuanChengHuiZu District South Cao Township JinDaiGongYeYuanWenXing Road 189 No. ADong","province":"Henan","prov":"GuanChengHuiZu District","city":"","county":"","else":"","lat":34.69057,"lng":113.71788,"experience":"","HMaster":"","scandal":"","contact":"","inputType":"","dateStart":"","dateEnd":""},{"name":"HenanYuJiaoYouth Growth Base","addr":"ZhongMou County DaMeng Town BaoXing Road","province":"Henan","prov":"ZhongMou County","city":"","county":"","else":"","lat":34.78408,"lng":113.97104,"experience":"","HMaster":"","scandal":"","contact":"","inputType":"","dateStart":"","dateEnd":""},{"name":"HenanKongDeTeXun Base","addr":"XingYang City LiuHe Town FenShuiLing Village","province":"Henan","prov":"XingYang City","city":"","county":"","else":"","lat":34.68343,"lng":113.28766,"experience":"","HMaster":"","scandal":"","contact":"","inputType":"","dateStart":"","dateEnd":""},{"name":"ZhongYuanQingChunChongSuBase","addr":"ZhengZhou City ErQi District MaZhai Town HongHuaSiCommunity","province":"Henan","prov":"ErQi District","city":"","county":"","else":"","lat":34.648937,"lng":113.624022,"experience":"","HMaster":"","scandal":"","contact":"","inputType":"","dateStart":"","dateEnd":""},{"name":"ZhengZhouBoQiangXinGuanNian School","addr":"ZhengZhou City JinShui District LiuLin Town XinZhuangJiaYuan","province":"Henan","prov":"JinShui District","city":"","county":"","else":"","lat":34.820308,"lng":113.68271,"experience":"","HMaster":"","scandal":"","contact":"","inputType":"","dateStart":"","dateEnd":""},{"name":"HenanQiShanYouth Growth Center","addr":"XinZheng City GuanYinSi Town LiangKu Road","province":"Henan","prov":"XinZheng City","city":"","county":"","else":"","lat":34.32976,"lng":113.68943,"experience":"","HMaster":"","scandal":"","contact":"","inputType":"","dateStart":"","dateEnd":""},{"name":"HenanXianGeSuZhiEducation School","addr":"ZhongMou County GuanDu Town GuanDuDa Street","province":"Henan","prov":"ZhongMou County","city":"","county":"","else":"","lat":34.73339000000001,"lng":114.0893,"experience":"","HMaster":"","scandal":"","contact":"","inputType":"","dateStart":"","dateEnd":""},{"name":"HenanLeiYingTeXunEducationCenter","addr":"XingYang City GuangWu Town TaoHuaYuJing District","province":"Henan","prov":"XingYang City","city":"","county":"","else":"","lat":34.89445,"lng":113.44546,"experience":"","HMaster":"","scandal":"","contact":"","inputType":"","dateStart":"","dateEnd":""},{"name":"HenanXinQiDianLiZhiEducation School","addr":"ZhengZhou City HuiJi District GuXing Town GuXingDa Street","province":"Henan","prov":"HuiJi District","city":"","county":"","else":"","lat":34.878132,"lng":113.541303,"experience":"","HMaster":"","scandal":"","contact":"","inputType":"","dateStart":"","dateEnd":""},{"name":"ZhengZhou City QiHangYouth Growth Center","addr":"ZhengZhou City GuanChengHuiZu District ShiBaLiHe Town YuTong Road","province":"Henan","prov":"GuanChengHuiZu District","city":"","county":"","else":"","lat":34.6836,"lng":113.70029,"experience":"","HMaster":"","scandal":"","contact":"","inputType":"","dateStart":"","dateEnd":""},{"name":"ZhengZhouLeTaoEducation Base","addr":"XinZheng City XueDian Town ShiJi Avenue 16 No.","province":"Henan","prov":"XinZheng City","city":"","county":"","else":"","lat":34.48972,"lng":113.80452,"experience":"","HMaster":"","scandal":"","contact":"","inputType":"","dateStart":"","dateEnd":""},{"name":"ZhengZhouXinHangXianEducation","addr":"ZhengZhou City JinShui District East Feng Road 28 No. ShiXi Center 2008Shi","province":"Henan","prov":"JinShui District","city":"","county":"","else":"","lat":34.7994,"lng":113.65886,"experience":"","HMaster":"","scandal":"","contact":"","inputType":"","dateStart":"","dateEnd":""},{"name":"ZhengZhouMingDeEducation Base","addr":"XingYang City JiaYu Town DongLinHuXinTianChengYiQiF District 12Dong","province":"Henan","prov":"XingYang City","city":"","county":"","else":"","lat":34.674292,"lng":113.450639,"experience":"","HMaster":"","scandal":"","contact":"","inputType":"","dateStart":"","dateEnd":""},{"name":"ZhengZhouLingHangEducation","addr":"ZhengZhou City ErQi District JingGuang South Road 58 No. Du City LiYinXiao District 1 No. Lou","province":"Henan","prov":"ErQi District","city":"","county":"","else":"","lat":34.71137,"lng":113.65659,"experience":"","HMaster":"","scandal":"","contact":"","inputType":"","dateStart":"","dateEnd":""},{"name":"ZhengZhouBoSiEducation","addr":"ZhengZhou City JinShui District FengChan Road 92 No. GuoMao Center AZuo2206Shi","province":"Henan","prov":"JinShui District","city":"","county":"","else":"","lat":34.78433,"lng":113.6901,"experience":"","HMaster":"","scandal":"","contact":"","inputType":"","dateStart":"","dateEnd":""},{"name":"ZhengZhouJuXianPanNiSpecial Training School","addr":"XingYang City Wang Village Town Wang Village GongYeYuan","province":"Henan","prov":"XingYang City","city":"","county":"","else":"","lat":34.87857,"lng":113.27745,"experience":"","HMaster":"","scandal":"","contact":"","inputType":"","dateStart":"","dateEnd":""},{"name":"ZhengZhouYangGuangShaoNianEducation Base","addr":"ZhongMou County LangChengGang Town TaiPingZhuang Village","province":"Henan","prov":"ZhongMou County","city":"","county":"","else":"","lat":34.861451,"lng":114.189946,"experience":"","HMaster":"","scandal":"","contact":"","inputType":"","dateStart":"","dateEnd":""},{"name":"ZhengZhouQiTaiPanNiSchool","addr":"XinZheng City LiHe Town ChangJiang Road Yu107 National HighwayJiaoChaKou","province":"Henan","prov":"XinZheng City","city":"","county":"","else":"","lat":34.3505899,"lng":113.73347,"experience":"","HMaster":"","scandal":"","contact":"","inputType":"","dateStart":"","dateEnd":""},{"name":"HenanYuJianPsychologyStudio","addr":"ZhengZhou City Zheng East New District ShangWu Inside HuanShiMaoDaXiaAZuo23Ceng","province":"Henan","prov":"Zheng East Xin District","city":"","county":"","else":"","lat":34.777193,"lng":113.723338,"experience":"","HMaster":"","scandal":"","contact":"","inputType":"","dateStart":"","dateEnd":""},{"name":"HenanZhengNian Psychology Studio","addr":"ZhengZhou City GaoXin District DongQing Street 26 No. HenanUniversityKeJiYuan5 No. Lou302Shi","province":"Henan","prov":"GaoXin District","city":"","county":"","else":"","lat":34.80272,"lng":113.54307,"experience":"","HMaster":"","scandal":"","contact":"","inputType":"","dateStart":"","dateEnd":""},{"name":"HenanZhengDeQingShaoNianJiaoZhengSchool","addr":"XingYang City JinZhai Township JinZhai Village","province":"Henan","prov":"XingYang City","city":"","county":"","else":"","lat":34.8239,"lng":113.356203,"experience":"","HMaster":"","scandal":"","contact":"","inputType":"","dateStart":"","dateEnd":""},{"name":"ZhengZhouLiFengQingShaoNianChengChangJiaYuan","addr":"XinMi City PingMo Town PingMo Street","province":"Henan","prov":"XinMi City","city":"","county":"","else":"","lat":34.4545642,"lng":113.3150847,"experience":"","HMaster":"","scandal":"","contact":"","inputType":"","dateStart":"","dateEnd":""},{"name":"ZhengZhouYangGuangQingShaoNianPsychologyShuDaoEducation Base","addr":"ZhengZhou City HuiJi District YingBin Road 9 No.","province":"Henan","prov":"HuiJi District","city":"","county":"","else":"","lat":34.87031,"lng":113.66777,"experience":"","HMaster":"","scandal":"","contact":"","inputType":"","dateStart":"","dateEnd":""},{"name":"ZhengZhou West YuanQingShaoNianChengChangCollege","addr":"ZhengZhou City ZhongYuan District West Gang Village","province":"Henan","prov":"ZhongYuan District","city":"","county":"","else":"","lat":34.761796,"lng":113.564537,"experience":"","HMaster":"","scandal":"","contact":"","inputType":"","dateStart":"","dateEnd":""},{"name":"ZhengZhouYangGuangXiaWanYouth Special Training Camp","addr":"ZhongMou County YanMingHu Town YanMingHuAvenue","province":"Henan","prov":"ZhongMou County","city":"","county":"","else":"","lat":34.8560642,"lng":114.1521101,"experience":"","HMaster":"","scandal":"","contact":"","inputType":"","dateStart":"","dateEnd":""},{"name":"ZhengZhouHuaYuQingShaoNianEducation Base","addr":"XinZheng City ChengGuan Township ZhouZhuang Village","province":"Henan","prov":"XinZheng City","city":"","county":"","else":"","lat":34.388811,"lng":113.706905,"experience":"","HMaster":"","scandal":"","contact":"","inputType":"","dateStart":"","dateEnd":""},{"name":"ZhengZhouXingHuoBehavioral Correction School","addr":"ZhengZhou City ErQi District HouZhai Township YingTaoGouJing District","province":"Henan","prov":"ErQi District","city":"","county":"","else":"","lat":34.667829,"lng":113.588937,"experience":"","HMaster":"","scandal":"","contact":"","inputType":"","dateStart":"","dateEnd":""},{"name":"ZhengZhouZhiHuiShuYouth Growth Center","addr":"ZhengZhou City JinShui District North Lin Road 16 No. XinYuanJinRongSquare1503Shi","province":"Henan","prov":"JinShui District","city":"","county":"","else":"","lat":34.80584,"lng":113.69134,"experience":"","HMaster":"","scandal":"","contact":"","inputType":"","dateStart":"","dateEnd":""},{"name":"ZhengZhouXiangYuYouth Training Camp","addr":"XingYang City CuiMiao Town SiGou Village","province":"Henan","prov":"XingYang City","city":"","county":"","else":"","lat":34.672806,"lng":113.354804,"experience":"","HMaster":"","scandal":"","contact":"","inputType":"","dateStart":"","dateEnd":""},{"name":"HenanYu North QingShaoNianPanNiJiaoZhengSchool","addr":"ZhengZhou City HuiJi District HuaYuanKou Town BaBao Village","province":"Henan","prov":"HuiJi District","city":"","county":"","else":"","lat":34.874804,"lng":113.672521,"experience":"","HMaster":"","scandal":"","contact":"","inputType":"","dateStart":"","dateEnd":""},{"name":"ZhongYuanQiZhiEducation","addr":"ZhengZhou City GuanChengHuiZu District HangHai East Road YuDiSiDa Street TianMingGuoJiYuanBDong","province":"Henan","prov":"GuanChengHuiZu District","city":"","county":"","else":"","lat":34.71881,"lng":113.69892,"experience":"","HMaster":"","scandal":"","contact":"","inputType":"","dateStart":"","dateEnd":""},{"name":"HuangHeYuYingSchool","addr":"ZhongMou County WanTan Town HuangHeDaDiNorth Side","province":"Henan","prov":"ZhongMou County","city":"","county":"","else":"","lat":34.86068,"lng":113.943067,"experience":"","HMaster":"","scandal":"","contact":"","inputType":"","dateStart":"","dateEnd":""},{"name":"SongShanZhengDeEducation","addr":"DengFeng City ZhongYueSubdistrictShaoLinAvenue","province":"Henan","prov":"DengFeng City","city":"","county":"","else":"","lat":34.45444,"lng":113.06993,"experience":"","HMaster":"","scandal":"","contact":"","inputType":"","dateStart":"","dateEnd":""},{"name":"ZhengZhouHuiNuoTeJieWangYinSchool","addr":"XingYang City QiaoLou Town ZhongYuan West Road YuWanShan Road JiaoChaKouXiang West 800Mi","province":"Henan","prov":"XingYang City","city":"","county":"","else":"","lat":34.74966,"lng":113.38544,"experience":"","HMaster":"","scandal":"","contact":"","inputType":"","dateStart":"","dateEnd":""},{"name":"ZhengZhouMingDeShaoNianCollege","addr":"XinZheng City LongHu Town ShaWoLi Village","province":"Henan","prov":"XinZheng City","city":"","county":"","else":"","lat":34.62956,"lng":113.698139,"experience":"","HMaster":"","scandal":"","contact":"","inputType":"","dateStart":"","dateEnd":""},{"name":"HenanHuHangGuoFangEducationJieWangSchool","addr":"ZhengZhou City JingKai District DiShiWuDa Street YuJing South Ba Road JiaoChaKou","province":"Henan","prov":"JingKai District","city":"","county":"","else":"","lat":34.700618,"lng":113.746084,"experience":"","HMaster":"","scandal":"","contact":"","inputType":"","dateStart":"","dateEnd":""},